[
    {
       "id":3385122,
       "name":"Viana",
       "country":"BR",
       "coord":{
          "lon":-45.003609,
          "lat":-3.22028
       }
    },
    {
       "id":3386567,
       "name":"Sao Joao dos Inhamuns",
       "country":"BR",
       "coord":{
          "lon":-40.283329,
          "lat":-6
       }
    },
    {
       "id":3461580,
       "name":"Ibiraci",
       "country":"BR",
       "coord":{
          "lon":-47.122219,
          "lat":-20.462219
       }
    },
    {
       "id":3457581,
       "name":"Marumbi",
       "country":"BR",
       "coord":{
          "lon":-51.639439,
          "lat":-23.70611
       }
    },
    {
       "id":3454363,
       "name":"Pedro Gomes",
       "country":"BR",
       "coord":{
          "lon":-54.551941,
          "lat":-18.100559
       }
    },
    {
       "id":3445727,
       "name":"Urânia",
       "country":"BR",
       "coord":{
          "lon":-50.643059,
          "lat":-20.246111
       }
    },
    {
       "id":3389652,
       "name":"Santa Cruz do Capibaribe",
       "country":"BR",
       "coord":{
          "lon":-36.20472,
          "lat":-7.9575
       }
    },
    {
       "id":3462321,
       "name":"Gouvêa",
       "country":"BR",
       "coord":{
          "lon":-43.740829,
          "lat":-18.454439
       }
    },
    {
       "id":3461620,
       "name":"Ibia",
       "country":"BR",
       "coord":{
          "lon":-46.538891,
          "lat":-19.478331
       }
    },
    {
       "id":3385106,
       "name":"Vicosa do Ceara",
       "country":"BR",
       "coord":{
          "lon":-41.09222,
          "lat":-3.56222
       }
    },
    {
       "id":3465373,
       "name":"Correntina",
       "country":"BR",
       "coord":{
          "lon":-44.636669,
          "lat":-13.34333
       }
    },
    {
       "id":3451432,
       "name":"Riacho do Ouro",
       "country":"BR",
       "coord":{
          "lon":-47.133331,
          "lat":-11.61667
       }
    },
    {
       "id":3471919,
       "name":"Apiúna",
       "country":"BR",
       "coord":{
          "lon":-49.389721,
          "lat":-27.035561
       }
    },
    {
       "id":3448237,
       "name":"São Sebastião da Grama",
       "country":"BR",
       "coord":{
          "lon":-46.820831,
          "lat":-21.71056
       }
    },
    {
       "id":3463449,
       "name":"Feliz",
       "country":"BR",
       "coord":{
          "lon":-51.306389,
          "lat":-29.45083
       }
    },
    {
       "id":3456232,
       "name":"Nossa Senhora das Graças",
       "country":"BR",
       "coord":{
          "lon":-51.794441,
          "lat":-22.91361
       }
    },
    {
       "id":3464364,
       "name":"Ecoporanga",
       "country":"BR",
       "coord":{
          "lon":-40.830559,
          "lat":-18.373329
       }
    },
    {
       "id":3455020,
       "name":"Parauna",
       "country":"BR",
       "coord":{
          "lon":-50.448608,
          "lat":-16.947781
       }
    },
    {
       "id":3471012,
       "name":"Balsa Nova",
       "country":"BR",
       "coord":{
          "lon":-49.635559,
          "lat":-25.583891
       }
    },
    {
       "id":3452012,
       "name":"Quilombo",
       "country":"BR",
       "coord":{
          "lon":-52.720558,
          "lat":-26.72611
       }
    },
    {
       "id":3393876,
       "name":"Nova Cruz",
       "country":"BR",
       "coord":{
          "lon":-35.433891,
          "lat":-6.47806
       }
    },
    {
       "id":3472508,
       "name":"Alpestre",
       "country":"BR",
       "coord":{
          "lon":-53.035,
          "lat":-27.24889
       }
    },
    {
       "id":3457883,
       "name":"Manoel Viana",
       "country":"BR",
       "coord":{
          "lon":-55.48278,
          "lat":-29.58917
       }
    },
    {
       "id":3446313,
       "name":"Toropi",
       "country":"BR",
       "coord":{
          "lon":-54.228062,
          "lat":-29.478331
       }
    },
    {
       "id":3451182,
       "name":"Rio do Campo",
       "country":"BR",
       "coord":{
          "lon":-50.141392,
          "lat":-26.948891
       }
    },
    {
       "id":3460887,
       "name":"Itai",
       "country":"BR",
       "coord":{
          "lon":-49.090561,
          "lat":-23.41778
       }
    },
    {
       "id":3456905,
       "name":"Montanha",
       "country":"BR",
       "coord":{
          "lon":-40.363331,
          "lat":-18.12694
       }
    },
    {
       "id":3451270,
       "name":"Rio Acima",
       "country":"BR",
       "coord":{
          "lon":-43.78944,
          "lat":-20.0875
       }
    },
    {
       "id":3388443,
       "name":"Sao Jose de Mipibu",
       "country":"BR",
       "coord":{
          "lon":-35.237782,
          "lat":-6.07472
       }
    },
    {
       "id":3460242,
       "name":"Jaguaquara",
       "country":"BR",
       "coord":{
          "lon":-39.970829,
          "lat":-13.53056
       }
    },
    {
       "id":3466655,
       "name":"Catita",
       "country":"BR",
       "coord":{
          "lon":-44.73333,
          "lat":-19.549999
       }
    },
    {
       "id":3389898,
       "name":"Salgado",
       "country":"BR",
       "coord":{
          "lon":-36.26667,
          "lat":-9.6
       }
    },
    {
       "id":3450055,
       "name":"Santa Maria Madalena",
       "country":"BR",
       "coord":{
          "lon":-42.00806,
          "lat":-21.95528
       }
    },
    {
       "id":3407841,
       "name":"Alto da Conceição",
       "country":"BR",
       "coord":{
          "lon":-36.033329,
          "lat":-8.81667
       }
    },
    {
       "id":3445849,
       "name":"Ubata",
       "country":"BR",
       "coord":{
          "lon":-39.522781,
          "lat":-14.21389
       }
    },
    {
       "id":3460243,
       "name":"Jaguapitã",
       "country":"BR",
       "coord":{
          "lon":-51.53194,
          "lat":-23.11278
       }
    },
    {
       "id":3467536,
       "name":"Candói",
       "country":"BR",
       "coord":{
          "lon":-52.183331,
          "lat":-25.716669
       }
    },
    {
       "id":3456205,
       "name":"Nova Aliança do Ivaí",
       "country":"BR",
       "coord":{
          "lon":-52.60194,
          "lat":-23.17667
       }
    },
    {
       "id":3467688,
       "name":"Campos Altos",
       "country":"BR",
       "coord":{
          "lon":-46.171391,
          "lat":-19.69611
       }
    },
    {
       "id":3467761,
       "name":"Campo Florido",
       "country":"BR",
       "coord":{
          "lon":-48.57222,
          "lat":-19.760559
       }
    },
    {
       "id":3467860,
       "name":"Campina Verde",
       "country":"BR",
       "coord":{
          "lon":-49.486389,
          "lat":-19.535561
       }
    },
    {
       "id":3471819,
       "name":"Aramina",
       "country":"BR",
       "coord":{
          "lon":-47.785831,
          "lat":-20.090281
       }
    },
    {
       "id":3446291,
       "name":"Torrinha",
       "country":"BR",
       "coord":{
          "lon":-48.16917,
          "lat":-22.426109
       }
    },
    {
       "id":3395689,
       "name":"Manaira",
       "country":"BR",
       "coord":{
          "lon":-38.154442,
          "lat":-7.70611
       }
    },
    {
       "id":3473198,
       "name":"Acorizal",
       "country":"BR",
       "coord":{
          "lon":-56.365829,
          "lat":-15.20472
       }
    },
    {
       "id":3386628,
       "name":"Taquarana",
       "country":"BR",
       "coord":{
          "lon":-36.497219,
          "lat":-9.645
       }
    },
    {
       "id":3394645,
       "name":"Mombacinha",
       "country":"BR",
       "coord":{
          "lon":-36.700001,
          "lat":-9.88333
       }
    },
    {
       "id":3452191,
       "name":"Putinga",
       "country":"BR",
       "coord":{
          "lon":-52.154171,
          "lat":-29.00194
       }
    },
    {
       "id":3397931,
       "name":"Itapetim",
       "country":"BR",
       "coord":{
          "lon":-37.190281,
          "lat":-7.37833
       }
    },
    {
       "id":3404760,
       "name":"Bujaru",
       "country":"BR",
       "coord":{
          "lon":-48.04472,
          "lat":-1.515
       }
    },
    {
       "id":3402548,
       "name":"Castelo do Piaui",
       "country":"BR",
       "coord":{
          "lon":-41.552502,
          "lat":-5.32222
       }
    },
    {
       "id":3461543,
       "name":"Ibitirama",
       "country":"BR",
       "coord":{
          "lon":-41.667221,
          "lat":-20.541389
       }
    },
    {
       "id":3454419,
       "name":"Pedras Grandes",
       "country":"BR",
       "coord":{
          "lon":-49.185001,
          "lat":-28.435829
       }
    },
    {
       "id":3467707,
       "name":"Campo Novo",
       "country":"BR",
       "coord":{
          "lon":-53.803329,
          "lat":-27.67528
       }
    },
    {
       "id":3463737,
       "name":"Estrela do Sul",
       "country":"BR",
       "coord":{
          "lon":-47.69278,
          "lat":-18.74556
       }
    },
    {
       "id":3397230,
       "name":"Jose de Freitas",
       "country":"BR",
       "coord":{
          "lon":-42.575562,
          "lat":-4.75639
       }
    },
    {
       "id":3456504,
       "name":"Muquilão",
       "country":"BR",
       "coord":{
          "lon":-52.116669,
          "lat":-24.23333
       }
    },
    {
       "id":3406160,
       "name":"Barreiros",
       "country":"BR",
       "coord":{
          "lon":-35.18639,
          "lat":-8.81833
       }
    },
    {
       "id":3448812,
       "name":"São Jorge do Ivaí",
       "country":"BR",
       "coord":{
          "lon":-52.29306,
          "lat":-23.432779
       }
    },
    {
       "id":3458681,
       "name":"Lavrinhas",
       "country":"BR",
       "coord":{
          "lon":-44.902222,
          "lat":-22.570829
       }
    },
    {
       "id":3397680,
       "name":"Jaguaretama",
       "country":"BR",
       "coord":{
          "lon":-38.766941,
          "lat":-5.61278
       }
    },
    {
       "id":3461891,
       "name":"Guarani das Missões",
       "country":"BR",
       "coord":{
          "lon":-54.55806,
          "lat":-28.140829
       }
    },
    {
       "id":3445459,
       "name":"Varzea da Palma",
       "country":"BR",
       "coord":{
          "lon":-44.730831,
          "lat":-17.598061
       }
    },
    {
       "id":7774168,
       "name":"Sítio Boa Esperança",
       "country":"BR",
       "coord":{
          "lon":-50.662689,
          "lat":-23.5352
       }
    },
    {
       "id":3459352,
       "name":"Ladario",
       "country":"BR",
       "coord":{
          "lon":-57.601669,
          "lat":-19.004721
       }
    },
    {
       "id":3453739,
       "name":"Pinheiro Preto",
       "country":"BR",
       "coord":{
          "lon":-51.230831,
          "lat":-27.05056
       }
    },
    {
       "id":3461715,
       "name":"Guzolândia",
       "country":"BR",
       "coord":{
          "lon":-50.661942,
          "lat":-20.649719
       }
    },
    {
       "id":3455461,
       "name":"Palmares do Sul",
       "country":"BR",
       "coord":{
          "lon":-50.50972,
          "lat":-30.25778
       }
    },
    {
       "id":3470687,
       "name":"Barra do Quaraí",
       "country":"BR",
       "coord":{
          "lon":-57.554722,
          "lat":-30.20722
       }
    },
    {
       "id":3445148,
       "name":"Vianopolis",
       "country":"BR",
       "coord":{
          "lon":-48.516392,
          "lat":-16.74194
       }
    },
    {
       "id":3411892,
       "name":"Fortaleza do Tabocão",
       "country":"BR",
       "coord":{
          "lon":-48.51889,
          "lat":-9.05722
       }
    },
    {
       "id":3461676,
       "name":"Hidrolina",
       "country":"BR",
       "coord":{
          "lon":-49.465,
          "lat":-14.72444
       }
    },
    {
       "id":3455189,
       "name":"Papanduva",
       "country":"BR",
       "coord":{
          "lon":-50.14444,
          "lat":-26.370279
       }
    },
    {
       "id":3400256,
       "name":"Fazenda Coité",
       "country":"BR",
       "coord":{
          "lon":-38.666672,
          "lat":-3.9
       }
    },
    {
       "id":3460137,
       "name":"Japaraíba",
       "country":"BR",
       "coord":{
          "lon":-45.50333,
          "lat":-20.14139
       }
    },
    {
       "id":3450024,
       "name":"Santana",
       "country":"BR",
       "coord":{
          "lon":-39.75,
          "lat":-18.566669
       }
    },
    {
       "id":3472295,
       "name":"Analândia",
       "country":"BR",
       "coord":{
          "lon":-47.663059,
          "lat":-22.12639
       }
    },
    {
       "id":3664539,
       "name":"Coari",
       "country":"BR",
       "coord":{
          "lon":-63.141392,
          "lat":-4.085
       }
    },
    {
       "id":3464413,
       "name":"Duas Barras",
       "country":"BR",
       "coord":{
          "lon":-41.650002,
          "lat":-21.383329
       }
    },
    {
       "id":3449519,
       "name":"Santo Antonio de Padua",
       "country":"BR",
       "coord":{
          "lon":-42.180279,
          "lat":-21.53944
       }
    },
    {
       "id":3408094,
       "name":"Alagoinha",
       "country":"BR",
       "coord":{
          "lon":-35.544998,
          "lat":-6.95
       }
    },
    {
       "id":3403344,
       "name":"Caninde de Sao Francisco",
       "country":"BR",
       "coord":{
          "lon":-37.78944,
          "lat":-9.66
       }
    },
    {
       "id":3466941,
       "name":"Carira",
       "country":"BR",
       "coord":{
          "lon":-37.701111,
          "lat":-10.36083
       }
    },
    {
       "id":3390896,
       "name":"Quixere",
       "country":"BR",
       "coord":{
          "lon":-37.988609,
          "lat":-5.07417
       }
    },
    {
       "id":3458341,
       "name":"Lunardelli",
       "country":"BR",
       "coord":{
          "lon":-51.200001,
          "lat":-23
       }
    },
    {
       "id":3465736,
       "name":"Conceição dos Ouros",
       "country":"BR",
       "coord":{
          "lon":-45.798061,
          "lat":-22.413059
       }
    },
    {
       "id":3461458,
       "name":"Iguatama",
       "country":"BR",
       "coord":{
          "lon":-45.711391,
          "lat":-20.17444
       }
    },
    {
       "id":3392361,
       "name":"Pendencias",
       "country":"BR",
       "coord":{
          "lon":-36.722221,
          "lat":-5.26
       }
    },
    {
       "id":3471685,
       "name":"Arceburgo",
       "country":"BR",
       "coord":{
          "lon":-46.939999,
          "lat":-21.36417
       }
    },
    {
       "id":3397675,
       "name":"Jaguaribe",
       "country":"BR",
       "coord":{
          "lon":-38.621941,
          "lat":-5.89056
       }
    },
    {
       "id":3473140,
       "name":"Adustina",
       "country":"BR",
       "coord":{
          "lon":-38.099998,
          "lat":-10.53333
       }
    },
    {
       "id":3458691,
       "name":"Lavras do Sul",
       "country":"BR",
       "coord":{
          "lon":-53.895,
          "lat":-30.813061
       }
    },
    {
       "id":3472319,
       "name":"Amorinópolis",
       "country":"BR",
       "coord":{
          "lon":-51.093609,
          "lat":-16.619169
       }
    },
    {
       "id":3453622,
       "name":"Pirai do Sul",
       "country":"BR",
       "coord":{
          "lon":-49.948608,
          "lat":-24.52611
       }
    },
    {
       "id":3386543,
       "name":"Tavares",
       "country":"BR",
       "coord":{
          "lon":-37.87833,
          "lat":-7.63583
       }
    },
    {
       "id":3397865,
       "name":"Itaueira",
       "country":"BR",
       "coord":{
          "lon":-43.025558,
          "lat":-7.60333
       }
    },
    {
       "id":3407797,
       "name":"Altos",
       "country":"BR",
       "coord":{
          "lon":-42.459999,
          "lat":-5.03806
       }
    },
    {
       "id":3470075,
       "name":"Bento de Abreu",
       "country":"BR",
       "coord":{
          "lon":-50.811939,
          "lat":-21.270559
       }
    },
    {
       "id":3389361,
       "name":"Santa Quiteria",
       "country":"BR",
       "coord":{
          "lon":-40.15667,
          "lat":-4.33194
       }
    },
    {
       "id":3455142,
       "name":"Paraí",
       "country":"BR",
       "coord":{
          "lon":-51.785561,
          "lat":-28.59417
       }
    },
    {
       "id":3471094,
       "name":"Baixa Grande",
       "country":"BR",
       "coord":{
          "lon":-40.16806,
          "lat":-11.95972
       }
    },
    {
       "id":3385303,
       "name":"Veados",
       "country":"BR",
       "coord":{
          "lon":-40.383331,
          "lat":-3.86667
       }
    },
    {
       "id":3455082,
       "name":"Paramirim",
       "country":"BR",
       "coord":{
          "lon":-42.238892,
          "lat":-13.4425
       }
    },
    {
       "id":3464514,
       "name":"Dores de Campos",
       "country":"BR",
       "coord":{
          "lon":-44.02306,
          "lat":-21.108891
       }
    },
    {
       "id":3453807,
       "name":"Espirito Santo do Pinhal",
       "country":"BR",
       "coord":{
          "lon":-46.682781,
          "lat":-22.115829
       }
    },
    {
       "id":3472514,
       "name":"Aloândia",
       "country":"BR",
       "coord":{
          "lon":-49.480282,
          "lat":-17.727221
       }
    },
    {
       "id":3457792,
       "name":"Marcelino Ramos",
       "country":"BR",
       "coord":{
          "lon":-51.906391,
          "lat":-27.46167
       }
    },
    {
       "id":3391172,
       "name":"Princesa Isabel",
       "country":"BR",
       "coord":{
          "lon":-37.993328,
          "lat":-7.73667
       }
    },
    {
       "id":3453494,
       "name":"Piritiba",
       "country":"BR",
       "coord":{
          "lon":-40.555279,
          "lat":-11.73028
       }
    },
    {
       "id":3447634,
       "name":"Sete Barras",
       "country":"BR",
       "coord":{
          "lon":-47.92556,
          "lat":-24.387779
       }
    },
    {
       "id":3449856,
       "name":"Santa Rita do Araguaia",
       "country":"BR",
       "coord":{
          "lon":-53.20528,
          "lat":-17.32556
       }
    },
    {
       "id":3385118,
       "name":"Vicencia",
       "country":"BR",
       "coord":{
          "lon":-35.326672,
          "lat":-7.65694
       }
    },
    {
       "id":3404390,
       "name":"Cachoeira dos Ándios",
       "country":"BR",
       "coord":{
          "lon":-38.674171,
          "lat":-6.92694
       }
    },
    {
       "id":3447865,
       "name":"Selbach",
       "country":"BR",
       "coord":{
          "lon":-52.952499,
          "lat":-28.628611
       }
    },
    {
       "id":3451894,
       "name":"Rafard",
       "country":"BR",
       "coord":{
          "lon":-47.526939,
          "lat":-23.011669
       }
    },
    {
       "id":3663684,
       "name":"Lábrea",
       "country":"BR",
       "coord":{
          "lon":-64.798058,
          "lat":-7.25861
       }
    },
    {
       "id":3460759,
       "name":"Itapé",
       "country":"BR",
       "coord":{
          "lon":-39.421108,
          "lat":-14.89833
       }
    },
    {
       "id":3467605,
       "name":"Canápolis",
       "country":"BR",
       "coord":{
          "lon":-49.204441,
          "lat":-18.725
       }
    },
    {
       "id":3398028,
       "name":"Iraucuba",
       "country":"BR",
       "coord":{
          "lon":-39.783329,
          "lat":-3.74611
       }
    },
    {
       "id":3472162,
       "name":"Anhembi",
       "country":"BR",
       "coord":{
          "lon":-48.12722,
          "lat":-22.78944
       }
    },
    {
       "id":3463558,
       "name":"Faxinal dos Guedes",
       "country":"BR",
       "coord":{
          "lon":-52.260281,
          "lat":-26.852779
       }
    },
    {
       "id":3451327,
       "name":"Ribeirão Vermelho",
       "country":"BR",
       "coord":{
          "lon":-45.061939,
          "lat":-21.190559
       }
    },
    {
       "id":3454519,
       "name":"Pedralva",
       "country":"BR",
       "coord":{
          "lon":-45.465832,
          "lat":-22.242781
       }
    },
    {
       "id":3464957,
       "name":"Curral de Dentro",
       "country":"BR",
       "coord":{
          "lon":-41.84444,
          "lat":-15.9375
       }
    },
    {
       "id":3464630,
       "name":"Dobrada",
       "country":"BR",
       "coord":{
          "lon":-48.39389,
          "lat":-21.51667
       }
    },
    {
       "id":3461612,
       "name":"Ibiam",
       "country":"BR",
       "coord":{
          "lon":-51.236938,
          "lat":-27.181391
       }
    },
    {
       "id":3663142,
       "name":"Novo Aripuana",
       "country":"BR",
       "coord":{
          "lon":-60.379719,
          "lat":-5.12056
       }
    },
    {
       "id":3403685,
       "name":"Camocim de Sao Felix",
       "country":"BR",
       "coord":{
          "lon":-35.76194,
          "lat":-8.35861
       }
    },
    {
       "id":3451667,
       "name":"Resende Costa",
       "country":"BR",
       "coord":{
          "lon":-44.237499,
          "lat":-20.92222
       }
    },
    {
       "id":3456124,
       "name":"Nova Resende",
       "country":"BR",
       "coord":{
          "lon":-46.42028,
          "lat":-21.12611
       }
    },
    {
       "id":3471834,
       "name":"Araguaiana",
       "country":"BR",
       "coord":{
          "lon":-51.83139,
          "lat":-15.73389
       }
    },
    {
       "id":3445709,
       "name":"Urubici",
       "country":"BR",
       "coord":{
          "lon":-49.591671,
          "lat":-28.014999
       }
    },
    {
       "id":3665098,
       "name":"Barcelos",
       "country":"BR",
       "coord":{
          "lon":-62.924171,
          "lat":-0.97472
       }
    },
    {
       "id":3462339,
       "name":"Gonzaga",
       "country":"BR",
       "coord":{
          "lon":-42.479172,
          "lat":-18.82222
       }
    },
    {
       "id":3447047,
       "name":"Taiúva",
       "country":"BR",
       "coord":{
          "lon":-48.451672,
          "lat":-21.12389
       }
    },
    {
       "id":3464044,
       "name":"Ervália",
       "country":"BR",
       "coord":{
          "lon":-42.657219,
          "lat":-20.84
       }
    },
    {
       "id":3453241,
       "name":"Pompeu",
       "country":"BR",
       "coord":{
          "lon":-45.099998,
          "lat":-19.16667
       }
    },
    {
       "id":3460785,
       "name":"Itanhem",
       "country":"BR",
       "coord":{
          "lon":-40.330002,
          "lat":-17.166389
       }
    },
    {
       "id":3407486,
       "name":"São João do Rio do Peixe",
       "country":"BR",
       "coord":{
          "lon":-38.448891,
          "lat":-6.72917
       }
    },
    {
       "id":3453324,
       "name":"Poço Fundo",
       "country":"BR",
       "coord":{
          "lon":-45.965,
          "lat":-21.78083
       }
    },
    {
       "id":3388620,
       "name":"São João do Jaguaribe",
       "country":"BR",
       "coord":{
          "lon":-38.273609,
          "lat":-5.27111
       }
    },
    {
       "id":3455040,
       "name":"Parapuã",
       "country":"BR",
       "coord":{
          "lon":-50.771671,
          "lat":-21.768061
       }
    },
    {
       "id":3387727,
       "name":"Serrita",
       "country":"BR",
       "coord":{
          "lon":-39.29583,
          "lat":-7.93333
       }
    },
    {
       "id":3391130,
       "name":"Puxinana",
       "country":"BR",
       "coord":{
          "lon":-35.96056,
          "lat":-7.16111
       }
    },
    {
       "id":3461581,
       "name":"Ibiracatu",
       "country":"BR",
       "coord":{
          "lon":-44.163891,
          "lat":-15.66361
       }
    },
    {
       "id":3470116,
       "name":"Belo Vale",
       "country":"BR",
       "coord":{
          "lon":-44.024441,
          "lat":-20.40778
       }
    },
    {
       "id":3460180,
       "name":"Jambeiro",
       "country":"BR",
       "coord":{
          "lon":-45.687778,
          "lat":-23.253611
       }
    },
    {
       "id":3467792,
       "name":"Campo Belo do Sul",
       "country":"BR",
       "coord":{
          "lon":-50.76083,
          "lat":-27.89917
       }
    },
    {
       "id":3456288,
       "name":"Nioaque",
       "country":"BR",
       "coord":{
          "lon":-55.830002,
          "lat":-21.135281
       }
    },
    {
       "id":3479058,
       "name":"Sítio João M. Claudino",
       "country":"BR",
       "coord":{
          "lon":-49.182999,
          "lat":-25.931499
       }
    },
    {
       "id":3468314,
       "name":"Cafarnaum",
       "country":"BR",
       "coord":{
          "lon":-41.46833,
          "lat":-11.69361
       }
    },
    {
       "id":3445177,
       "name":"Vermelho Novo",
       "country":"BR",
       "coord":{
          "lon":-42.266941,
          "lat":-20.03611
       }
    },
    {
       "id":3451100,
       "name":"Rio Pardo de Minas",
       "country":"BR",
       "coord":{
          "lon":-42.539719,
          "lat":-15.60972
       }
    },
    {
       "id":3445821,
       "name":"Uibaí",
       "country":"BR",
       "coord":{
          "lon":-42.1325,
          "lat":-11.33694
       }
    },
    {
       "id":3397873,
       "name":"Itaú",
       "country":"BR",
       "coord":{
          "lon":-37.992779,
          "lat":-5.83972
       }
    },
    {
       "id":3449938,
       "name":"Santana do Itararé",
       "country":"BR",
       "coord":{
          "lon":-49.629169,
          "lat":-23.754999
       }
    },
    {
       "id":3448331,
       "name":"São Pedro do Turvo",
       "country":"BR",
       "coord":{
          "lon":-49.739719,
          "lat":-22.746941
       }
    },
    {
       "id":3924674,
       "name":"Xapuri",
       "country":"BR",
       "coord":{
          "lon":-68.50444,
          "lat":-10.65167
       }
    },
    {
       "id":3446860,
       "name":"Tapiratiba",
       "country":"BR",
       "coord":{
          "lon":-46.748611,
          "lat":-21.46833
       }
    },
    {
       "id":6322148,
       "name":"Boracéia",
       "country":"BR",
       "coord":{
          "lon":-48.788631,
          "lat":-22.167589
       }
    },
    {
       "id":3469181,
       "name":"Boraceia",
       "country":"BR",
       "coord":{
          "lon":-48.778889,
          "lat":-22.19306
       }
    },
    {
       "id":3460221,
       "name":"Jaguari",
       "country":"BR",
       "coord":{
          "lon":-54.689999,
          "lat":-29.497499
       }
    },
    {
       "id":3455049,
       "name":"Paranhos",
       "country":"BR",
       "coord":{
          "lon":-55.43111,
          "lat":-23.89278
       }
    },
    {
       "id":3452919,
       "name":"Porto Amazonas",
       "country":"BR",
       "coord":{
          "lon":-49.890282,
          "lat":-25.54472
       }
    },
    {
       "id":3479327,
       "name":"Aliança do Tocantins",
       "country":"BR",
       "coord":{
          "lon":-48.935829,
          "lat":-11.30611
       }
    },
    {
       "id":3471369,
       "name":"Astolfo Dutra",
       "country":"BR",
       "coord":{
          "lon":-42.862221,
          "lat":-21.315281
       }
    },
    {
       "id":3448871,
       "name":"São João do Caiuá",
       "country":"BR",
       "coord":{
          "lon":-52.336941,
          "lat":-22.85194
       }
    },
    {
       "id":3467817,
       "name":"Campo Alegre",
       "country":"BR",
       "coord":{
          "lon":-49.26556,
          "lat":-26.192499
       }
    },
    {
       "id":3390490,
       "name":"Riacho das Almas",
       "country":"BR",
       "coord":{
          "lon":-35.856392,
          "lat":-8.13389
       }
    },
    {
       "id":3384930,
       "name":"Xexéu",
       "country":"BR",
       "coord":{
          "lon":-35.626942,
          "lat":-8.80222
       }
    },
    {
       "id":3924753,
       "name":"Sêco do Manduca",
       "country":"BR",
       "coord":{
          "lon":-61.900002,
          "lat":-11.3
       }
    },
    {
       "id":3463258,
       "name":"Floresta",
       "country":"BR",
       "coord":{
          "lon":-52.081108,
          "lat":-23.59889
       }
    },
    {
       "id":3454675,
       "name":"Paulo Bento",
       "country":"BR",
       "coord":{
          "lon":-52.421669,
          "lat":-27.701941
       }
    },
    {
       "id":3465080,
       "name":"Cruzeiro do Sul",
       "country":"BR",
       "coord":{
          "lon":-51.985279,
          "lat":-29.512779
       }
    },
    {
       "id":3389389,
       "name":"Santana de Mangueira",
       "country":"BR",
       "coord":{
          "lon":-38.332218,
          "lat":-7.555
       }
    },
    {
       "id":3391744,
       "name":"Poco Branco",
       "country":"BR",
       "coord":{
          "lon":-35.662781,
          "lat":-5.62278
       }
    },
    {
       "id":3407128,
       "name":"Arneiroz",
       "country":"BR",
       "coord":{
          "lon":-40.160561,
          "lat":-6.32361
       }
    },
    {
       "id":3396129,
       "name":"Lucrécia",
       "country":"BR",
       "coord":{
          "lon":-37.815559,
          "lat":-6.12
       }
    },
    {
       "id":3406413,
       "name":"Barra",
       "country":"BR",
       "coord":{
          "lon":-38.183331,
          "lat":-6.05
       }
    },
    {
       "id":3461569,
       "name":"Ibirapuitã",
       "country":"BR",
       "coord":{
          "lon":-52.511391,
          "lat":-28.62472
       }
    },
    {
       "id":3457126,
       "name":"Mira Estrela",
       "country":"BR",
       "coord":{
          "lon":-50.137218,
          "lat":-19.979441
       }
    },
    {
       "id":3472820,
       "name":"Aguia Branca",
       "country":"BR",
       "coord":{
          "lon":-40.74028,
          "lat":-18.983061
       }
    },
    {
       "id":3397119,
       "name":"Jucas",
       "country":"BR",
       "coord":{
          "lon":-39.5275,
          "lat":-6.52528
       }
    },
    {
       "id":3406948,
       "name":"Autazes",
       "country":"BR",
       "coord":{
          "lon":-59.130562,
          "lat":-3.57972
       }
    },
    {
       "id":3458237,
       "name":"Macaubas",
       "country":"BR",
       "coord":{
          "lon":-42.698608,
          "lat":-13.01944
       }
    },
    {
       "id":3466815,
       "name":"Casa Grande",
       "country":"BR",
       "coord":{
          "lon":-43.930279,
          "lat":-20.79278
       }
    },
    {
       "id":3450462,
       "name":"Santa Albertina",
       "country":"BR",
       "coord":{
          "lon":-50.727779,
          "lat":-20.03194
       }
    },
    {
       "id":3460552,
       "name":"Itirapuã",
       "country":"BR",
       "coord":{
          "lon":-47.21917,
          "lat":-20.640829
       }
    },
    {
       "id":3447812,
       "name":"Serafina Corrêa",
       "country":"BR",
       "coord":{
          "lon":-51.935001,
          "lat":-28.71167
       }
    },
    {
       "id":3410007,
       "name":"Placas",
       "country":"BR",
       "coord":{
          "lon":-42.686111,
          "lat":-3.56778
       }
    },
    {
       "id":3448333,
       "name":"São Pedro do Suaçuí",
       "country":"BR",
       "coord":{
          "lon":-42.602501,
          "lat":-18.365829
       }
    },
    {
       "id":3445530,
       "name":"Vargem Bonita",
       "country":"BR",
       "coord":{
          "lon":-53.01667,
          "lat":-26.116671
       }
    },
    {
       "id":3453599,
       "name":"Pirambu",
       "country":"BR",
       "coord":{
          "lon":-36.85611,
          "lat":-10.73778
       }
    },
    {
       "id":3460649,
       "name":"Itapura",
       "country":"BR",
       "coord":{
          "lon":-51.508888,
          "lat":-20.646111
       }
    },
    {
       "id":3459385,
       "name":"Juti",
       "country":"BR",
       "coord":{
          "lon":-54.602779,
          "lat":-22.860559
       }
    },
    {
       "id":3461086,
       "name":"Iporanga",
       "country":"BR",
       "coord":{
          "lon":-48.59306,
          "lat":-24.58556
       }
    },
    {
       "id":3448681,
       "name":"São José da Varginha",
       "country":"BR",
       "coord":{
          "lon":-44.556938,
          "lat":-19.709721
       }
    },
    {
       "id":3400935,
       "name":"Duas Estradas",
       "country":"BR",
       "coord":{
          "lon":-35.418331,
          "lat":-6.685
       }
    },
    {
       "id":3389225,
       "name":"Santa Teresinha",
       "country":"BR",
       "coord":{
          "lon":-37.445278,
          "lat":-7.03889
       }
    },
    {
       "id":3465429,
       "name":"Córrego Fundo",
       "country":"BR",
       "coord":{
          "lon":-45.555,
          "lat":-20.449169
       }
    },
    {
       "id":3411873,
       "name":"Aragominas",
       "country":"BR",
       "coord":{
          "lon":-48.5275,
          "lat":-7.15972
       }
    },
    {
       "id":3454532,
       "name":"Pedra do Indaiá",
       "country":"BR",
       "coord":{
          "lon":-45.208889,
          "lat":-20.258329
       }
    },
    {
       "id":3411874,
       "name":"Augustinópolis",
       "country":"BR",
       "coord":{
          "lon":-47.70639,
          "lat":-5.41
       }
    },
    {
       "id":3402613,
       "name":"Cascavel",
       "country":"BR",
       "coord":{
          "lon":-38.24194,
          "lat":-4.13306
       }
    },
    {
       "id":3969388,
       "name":"Vale do Paraíso",
       "country":"BR",
       "coord":{
          "lon":-62.134171,
          "lat":-10.44778
       }
    },
    {
       "id":3464051,
       "name":"Erval",
       "country":"BR",
       "coord":{
          "lon":-53.166672,
          "lat":-31.883329
       }
    },
    {
       "id":3394612,
       "name":"Montanhas",
       "country":"BR",
       "coord":{
          "lon":-35.287498,
          "lat":-6.48583
       }
    },
    {
       "id":3465703,
       "name":"Condeúba",
       "country":"BR",
       "coord":{
          "lon":-41.968609,
          "lat":-14.89528
       }
    },
    {
       "id":3461127,
       "name":"Ipiguá",
       "country":"BR",
       "coord":{
          "lon":-49.387218,
          "lat":-20.65667
       }
    },
    {
       "id":3408421,
       "name":"Abaré",
       "country":"BR",
       "coord":{
          "lon":-39.113892,
          "lat":-8.72028
       }
    },
    {
       "id":3461653,
       "name":"Hulha Negra",
       "country":"BR",
       "coord":{
          "lon":-53.869438,
          "lat":-31.404169
       }
    },
    {
       "id":3474501,
       "name":"Comodoro",
       "country":"BR",
       "coord":{
          "lon":-59.785831,
          "lat":-13.66306
       }
    },
    {
       "id":3455302,
       "name":"Palmópolis",
       "country":"BR",
       "coord":{
          "lon":-40.419998,
          "lat":-16.735001
       }
    },
    {
       "id":3458656,
       "name":"Leme do Prado",
       "country":"BR",
       "coord":{
          "lon":-42.692501,
          "lat":-17.08333
       }
    },
    {
       "id":3472247,
       "name":"André da Rocha",
       "country":"BR",
       "coord":{
          "lon":-51.571671,
          "lat":-28.63056
       }
    },
    {
       "id":3446363,
       "name":"Tomar do Geru",
       "country":"BR",
       "coord":{
          "lon":-37.840561,
          "lat":-11.37333
       }
    },
    {
       "id":3471653,
       "name":"Aredo",
       "country":"BR",
       "coord":{
          "lon":-41.466671,
          "lat":-16.26667
       }
    },
    {
       "id":3464288,
       "name":"Emilianópolis",
       "country":"BR",
       "coord":{
          "lon":-51.483059,
          "lat":-21.833059
       }
    },
    {
       "id":3397386,
       "name":"Jericó",
       "country":"BR",
       "coord":{
          "lon":-37.808609,
          "lat":-6.55361
       }
    },
    {
       "id":3456190,
       "name":"Nova Bréscia",
       "country":"BR",
       "coord":{
          "lon":-52.0275,
          "lat":-29.214439
       }
    },
    {
       "id":3468966,
       "name":"Brejo Alegre",
       "country":"BR",
       "coord":{
          "lon":-50.18528,
          "lat":-21.166389
       }
    },
    {
       "id":3458611,
       "name":"Liberdade",
       "country":"BR",
       "coord":{
          "lon":-46.633331,
          "lat":-23.549999
       }
    },
    {
       "id":3449293,
       "name":"Sao Domingos",
       "country":"BR",
       "coord":{
          "lon":-46.318329,
          "lat":-13.39833
       }
    },
    {
       "id":3445443,
       "name":"Varzedo",
       "country":"BR",
       "coord":{
          "lon":-39.39389,
          "lat":-12.97167
       }
    },
    {
       "id":3451428,
       "name":"Riacho dos Machados",
       "country":"BR",
       "coord":{
          "lon":-43.049438,
          "lat":-16.006109
       }
    },
    {
       "id":7593282,
       "name":"Taquaral",
       "country":"BR",
       "coord":{
          "lon":-45.508209,
          "lat":-22.518749
       }
    },
    {
       "id":3451181,
       "name":"Rio Doce",
       "country":"BR",
       "coord":{
          "lon":-42.895828,
          "lat":-20.24472
       }
    },
    {
       "id":3456286,
       "name":"Nipoã",
       "country":"BR",
       "coord":{
          "lon":-49.777779,
          "lat":-20.91333
       }
    },
    {
       "id":3448885,
       "name":"São João da Urtiga",
       "country":"BR",
       "coord":{
          "lon":-51.827499,
          "lat":-27.82028
       }
    },
    {
       "id":3396270,
       "name":"Limoeiro de Anadia",
       "country":"BR",
       "coord":{
          "lon":-36.502781,
          "lat":-9.74056
       }
    },
    {
       "id":3460643,
       "name":"Itaquara",
       "country":"BR",
       "coord":{
          "lon":-39.941109,
          "lat":-13.45083
       }
    },
    {
       "id":3406942,
       "name":"Axixá",
       "country":"BR",
       "coord":{
          "lon":-44.053329,
          "lat":-2.83694
       }
    },
    {
       "id":3454606,
       "name":"Pé do Morro",
       "country":"BR",
       "coord":{
          "lon":-46.933331,
          "lat":-12.96667
       }
    },
    {
       "id":3454701,
       "name":"Paula Freitas",
       "country":"BR",
       "coord":{
          "lon":-50.938061,
          "lat":-26.20833
       }
    },
    {
       "id":3461530,
       "name":"Ibituruna",
       "country":"BR",
       "coord":{
          "lon":-44.74778,
          "lat":-21.1525
       }
    },
    {
       "id":3450847,
       "name":"Rubelita",
       "country":"BR",
       "coord":{
          "lon":-42.262501,
          "lat":-16.407499
       }
    },
    {
       "id":3385758,
       "name":"Umirim",
       "country":"BR",
       "coord":{
          "lon":-39.350281,
          "lat":-3.67722
       }
    },
    {
       "id":3388112,
       "name":"Sao Sebastiao",
       "country":"BR",
       "coord":{
          "lon":-36.554169,
          "lat":-9.93361
       }
    },
    {
       "id":3455545,
       "name":"Paim Filho",
       "country":"BR",
       "coord":{
          "lon":-51.760559,
          "lat":-27.71056
       }
    },
    {
       "id":3471701,
       "name":"Aratuípe",
       "country":"BR",
       "coord":{
          "lon":-39.001671,
          "lat":-13.07889
       }
    },
    {
       "id":3405318,
       "name":"Bom Jesus",
       "country":"BR",
       "coord":{
          "lon":-47.933331,
          "lat":-5.65
       }
    },
    {
       "id":3386200,
       "name":"Tracunhaém",
       "country":"BR",
       "coord":{
          "lon":-35.240002,
          "lat":-7.80472
       }
    },
    {
       "id":3458446,
       "name":"Lontra",
       "country":"BR",
       "coord":{
          "lon":-44.305,
          "lat":-15.90333
       }
    },
    {
       "id":7772124,
       "name":"Sítio São Lucas",
       "country":"BR",
       "coord":{
          "lon":-52.18676,
          "lat":-23.04747
       }
    },
    {
       "id":3399245,
       "name":"Furnas",
       "country":"BR",
       "coord":{
          "lon":-35.783329,
          "lat":-5.76667
       }
    },
    {
       "id":3461484,
       "name":"Igreja Nova",
       "country":"BR",
       "coord":{
          "lon":-36.661942,
          "lat":-10.12528
       }
    },
    {
       "id":3454573,
       "name":"Pedra Bonita",
       "country":"BR",
       "coord":{
          "lon":-42.330002,
          "lat":-20.520559
       }
    },
    {
       "id":3407871,
       "name":"Altinho",
       "country":"BR",
       "coord":{
          "lon":-36.059441,
          "lat":-8.48972
       }
    },
    {
       "id":3447781,
       "name":"Serra",
       "country":"BR",
       "coord":{
          "lon":-40.716671,
          "lat":-15.45
       }
    },
    {
       "id":3393190,
       "name":"Panelas",
       "country":"BR",
       "coord":{
          "lon":-36.005829,
          "lat":-8.66361
       }
    },
    {
       "id":3407258,
       "name":"Arari",
       "country":"BR",
       "coord":{
          "lon":-44.779999,
          "lat":-3.45361
       }
    },
    {
       "id":3395409,
       "name":"Marcelino Vieira",
       "country":"BR",
       "coord":{
          "lon":-38.167221,
          "lat":-6.29417
       }
    },
    {
       "id":3394816,
       "name":"Miracica",
       "country":"BR",
       "coord":{
          "lon":-36.619999,
          "lat":-8.95667
       }
    },
    {
       "id":3454394,
       "name":"Pedrinhas",
       "country":"BR",
       "coord":{
          "lon":-37.673889,
          "lat":-11.19167
       }
    },
    {
       "id":3400541,
       "name":"Exu",
       "country":"BR",
       "coord":{
          "lon":-39.724171,
          "lat":-7.51194
       }
    },
    {
       "id":3451740,
       "name":"Redenção da Serra",
       "country":"BR",
       "coord":{
          "lon":-45.536671,
          "lat":-23.266939
       }
    },
    {
       "id":3461556,
       "name":"Ibitiara",
       "country":"BR",
       "coord":{
          "lon":-42.217781,
          "lat":-12.65222
       }
    },
    {
       "id":3448895,
       "name":"São João da Mata",
       "country":"BR",
       "coord":{
          "lon":-45.92889,
          "lat":-21.93
       }
    },
    {
       "id":3396364,
       "name":"Lavras da Mangabeira",
       "country":"BR",
       "coord":{
          "lon":-38.964439,
          "lat":-6.75333
       }
    },
    {
       "id":3398408,
       "name":"Ibiapina",
       "country":"BR",
       "coord":{
          "lon":-40.889439,
          "lat":-3.92333
       }
    },
    {
       "id":3925158,
       "name":"Costa Marques",
       "country":"BR",
       "coord":{
          "lon":-64.227219,
          "lat":-12.445
       }
    },
    {
       "id":3469430,
       "name":"Bom Jesus do Amparo",
       "country":"BR",
       "coord":{
          "lon":-43.47361,
          "lat":-19.703609
       }
    },
    {
       "id":3388336,
       "name":"São Mamede",
       "country":"BR",
       "coord":{
          "lon":-37.095558,
          "lat":-6.92667
       }
    },
    {
       "id":3452786,
       "name":"Porto Esperidião",
       "country":"BR",
       "coord":{
          "lon":-58.460281,
          "lat":-15.85278
       }
    },
    {
       "id":3445742,
       "name":"Unistalda",
       "country":"BR",
       "coord":{
          "lon":-55.15028,
          "lat":-29.04722
       }
    },
    {
       "id":3453793,
       "name":"Pinhal Grande",
       "country":"BR",
       "coord":{
          "lon":-53.306671,
          "lat":-29.346109
       }
    },
    {
       "id":3469132,
       "name":"Botumirim",
       "country":"BR",
       "coord":{
          "lon":-43.01083,
          "lat":-16.872219
       }
    },
    {
       "id":3460896,
       "name":"Itaguajé",
       "country":"BR",
       "coord":{
          "lon":-51.96611,
          "lat":-22.618059
       }
    },
    {
       "id":3407010,
       "name":"Assare",
       "country":"BR",
       "coord":{
          "lon":-39.875,
          "lat":-6.87444
       }
    },
    {
       "id":3394745,
       "name":"Mocajuba",
       "country":"BR",
       "coord":{
          "lon":-49.507221,
          "lat":-2.58417
       }
    },
    {
       "id":3450566,
       "name":"Salto da Divisa",
       "country":"BR",
       "coord":{
          "lon":-39.946941,
          "lat":-16.002781
       }
    },
    {
       "id":3925118,
       "name":"Espigão dOeste",
       "country":"BR",
       "coord":{
          "lon":-61.012779,
          "lat":-11.52472
       }
    },
    {
       "id":3452721,
       "name":"Porto Mauá",
       "country":"BR",
       "coord":{
          "lon":-54.66806,
          "lat":-27.575279
       }
    },
    {
       "id":3408175,
       "name":"Agua Preta",
       "country":"BR",
       "coord":{
          "lon":-35.53056,
          "lat":-8.7075
       }
    },
    {
       "id":3471942,
       "name":"Aparecida d'Oeste",
       "country":"BR",
       "coord":{
          "lon":-50.879719,
          "lat":-20.44944
       }
    },
    {
       "id":3395687,
       "name":"Manari",
       "country":"BR",
       "coord":{
          "lon":-37.583328,
          "lat":-8.81667
       }
    },
    {
       "id":3447670,
       "name":"Serrolândia",
       "country":"BR",
       "coord":{
          "lon":-40.30167,
          "lat":-11.41583
       }
    },
    {
       "id":3398007,
       "name":"Isaías Coelho",
       "country":"BR",
       "coord":{
          "lon":-41.676109,
          "lat":-7.73778
       }
    },
    {
       "id":3397983,
       "name":"Itaiba",
       "country":"BR",
       "coord":{
          "lon":-37.422779,
          "lat":-8.9475
       }
    },
    {
       "id":3451844,
       "name":"Rancho Alegre",
       "country":"BR",
       "coord":{
          "lon":-50.913059,
          "lat":-23.07
       }
    },
    {
       "id":3470065,
       "name":"Berilo",
       "country":"BR",
       "coord":{
          "lon":-42.465561,
          "lat":-16.95167
       }
    },
    {
       "id":3385635,
       "name":"Uruoca",
       "country":"BR",
       "coord":{
          "lon":-40.556671,
          "lat":-3.31389
       }
    },
    {
       "id":3459860,
       "name":"Joanésia",
       "country":"BR",
       "coord":{
          "lon":-42.678612,
          "lat":-19.17222
       }
    },
    {
       "id":3408272,
       "name":"Afonso Bezerra",
       "country":"BR",
       "coord":{
          "lon":-36.505562,
          "lat":-5.49833
       }
    },
    {
       "id":3391412,
       "name":"Portel",
       "country":"BR",
       "coord":{
          "lon":-50.82111,
          "lat":-1.93556
       }
    },
    {
       "id":3471286,
       "name":"Avelinópolis",
       "country":"BR",
       "coord":{
          "lon":-49.757778,
          "lat":-16.46583
       }
    },
    {
       "id":3463739,
       "name":"Estrela do Norte",
       "country":"BR",
       "coord":{
          "lon":-51.660278,
          "lat":-22.48806
       }
    },
    {
       "id":3447088,
       "name":"Tacuru",
       "country":"BR",
       "coord":{
          "lon":-55.015831,
          "lat":-23.6325
       }
    },
    {
       "id":3448350,
       "name":"São Pedro da Cipa",
       "country":"BR",
       "coord":{
          "lon":-54.666672,
          "lat":-15.86667
       }
    },
    {
       "id":3461916,
       "name":"Guaraipo",
       "country":"BR",
       "coord":{
          "lon":-52.933331,
          "lat":-25.700001
       }
    },
    {
       "id":3471794,
       "name":"Arapuá",
       "country":"BR",
       "coord":{
          "lon":-46.15556,
          "lat":-19.03389
       }
    },
    {
       "id":3403186,
       "name":"Capim",
       "country":"BR",
       "coord":{
          "lon":-35.171669,
          "lat":-6.91611
       }
    },
    {
       "id":3458102,
       "name":"Malhada dos Bois",
       "country":"BR",
       "coord":{
          "lon":-36.924171,
          "lat":-10.34944
       }
    },
    {
       "id":3386495,
       "name":"Teresinha",
       "country":"BR",
       "coord":{
          "lon":-52.033329,
          "lat":0.96667
       }
    },
    {
       "id":3449506,
       "name":"Santo Antônio do Itambé",
       "country":"BR",
       "coord":{
          "lon":-43.306671,
          "lat":-18.46583
       }
    },
    {
       "id":3445827,
       "name":"Ubiretama",
       "country":"BR",
       "coord":{
          "lon":-54.680561,
          "lat":-28.04611
       }
    },
    {
       "id":3385228,
       "name":"Vera Cruz",
       "country":"BR",
       "coord":{
          "lon":-35.428329,
          "lat":-6.04417
       }
    },
    {
       "id":3455994,
       "name":"Áleo",
       "country":"BR",
       "coord":{
          "lon":-49.341942,
          "lat":-22.941389
       }
    },
    {
       "id":3469435,
       "name":"Bom Jesus da Penha",
       "country":"BR",
       "coord":{
          "lon":-46.522499,
          "lat":-21.016939
       }
    },
    {
       "id":3402795,
       "name":"Carnaúba dos Dantas",
       "country":"BR",
       "coord":{
          "lon":-36.595001,
          "lat":-6.55556
       }
    },
    {
       "id":3461951,
       "name":"Guapiara",
       "country":"BR",
       "coord":{
          "lon":-48.53278,
          "lat":-24.184999
       }
    },
    {
       "id":3464513,
       "name":"Dores de Guanhães",
       "country":"BR",
       "coord":{
          "lon":-42.929169,
          "lat":-19.058331
       }
    },
    {
       "id":3407755,
       "name":"Amarante do Maranhao",
       "country":"BR",
       "coord":{
          "lon":-46.742222,
          "lat":-5.56667
       }
    },
    {
       "id":3445550,
       "name":"Vargem",
       "country":"BR",
       "coord":{
          "lon":-46.849998,
          "lat":-22.73333
       }
    },
    {
       "id":3448344,
       "name":"São Pedro de Alcântara",
       "country":"BR",
       "coord":{
          "lon":-48.805279,
          "lat":-27.566111
       }
    },
    {
       "id":3403395,
       "name":"Candido Mendes",
       "country":"BR",
       "coord":{
          "lon":-45.716671,
          "lat":-1.44667
       }
    },
    {
       "id":3456739,
       "name":"Morrinhos",
       "country":"BR",
       "coord":{
          "lon":-45.049999,
          "lat":-11.03333
       }
    },
    {
       "id":3449082,
       "name":"São Geraldo do Baixio",
       "country":"BR",
       "coord":{
          "lon":-41.360001,
          "lat":-18.9
       }
    },
    {
       "id":3402791,
       "name":"Carnaubais",
       "country":"BR",
       "coord":{
          "lon":-36.834438,
          "lat":-5.34833
       }
    },
    {
       "id":3460943,
       "name":"Itacarambi",
       "country":"BR",
       "coord":{
          "lon":-44.049999,
          "lat":-15.01667
       }
    },
    {
       "id":3398145,
       "name":"Ipanguacu",
       "country":"BR",
       "coord":{
          "lon":-36.855,
          "lat":-5.49833
       }
    },
    {
       "id":3449218,
       "name":"São Domingos do Sul",
       "country":"BR",
       "coord":{
          "lon":-51.887779,
          "lat":-28.53083
       }
    },
    {
       "id":3470034,
       "name":"Bias Fortes",
       "country":"BR",
       "coord":{
          "lon":-43.756939,
          "lat":-21.60611
       }
    },
    {
       "id":3450482,
       "name":"Sanga Puitã",
       "country":"BR",
       "coord":{
          "lon":-55.621391,
          "lat":-22.621941
       }
    },
    {
       "id":7597144,
       "name":"Vila Natal",
       "country":"BR",
       "coord":{
          "lon":-50.995701,
          "lat":-29.928499
       }
    },
    {
       "id":3663186,
       "name":"Nazaré",
       "country":"BR",
       "coord":{
          "lon":-62.916672,
          "lat":-0.98333
       }
    },
    {
       "id":3459455,
       "name":"Junqueira",
       "country":"BR",
       "coord":{
          "lon":-51.549999,
          "lat":-20.83333
       }
    },
    {
       "id":3386732,
       "name":"Tapera",
       "country":"BR",
       "coord":{
          "lon":-38.23333,
          "lat":-9.38333
       }
    },
    {
       "id":3662075,
       "name":"Tabatinga",
       "country":"BR",
       "coord":{
          "lon":-69.938057,
          "lat":-4.2525
       }
    },
    {
       "id":3458061,
       "name":"Mandaçaia",
       "country":"BR",
       "coord":{
          "lon":-50.666672,
          "lat":-24.33333
       }
    },
    {
       "id":3391329,
       "name":"Poti Velho",
       "country":"BR",
       "coord":{
          "lon":-42.833328,
          "lat":-5.03333
       }
    },
    {
       "id":3465872,
       "name":"Comandatuba",
       "country":"BR",
       "coord":{
          "lon":-39,
          "lat":-15.35
       }
    },
    {
       "id":3401225,
       "name":"Curral Velho",
       "country":"BR",
       "coord":{
          "lon":-56.24361,
          "lat":-1.85083
       }
    },
    {
       "id":3461101,
       "name":"Ipitanga",
       "country":"BR",
       "coord":{
          "lon":-38.333328,
          "lat":-12.9
       }
    },
    {
       "id":3445142,
       "name":"Vicente de Carvalho",
       "country":"BR",
       "coord":{
          "lon":-46.300831,
          "lat":-23.940281
       }
    },
    {
       "id":6322577,
       "name":"São José do Rio Preto",
       "country":"BR",
       "coord":{
          "lon":-49.356689,
          "lat":-20.76911
       }
    },
    {
       "id":3448639,
       "name":"Sao Jose do Rio Preto",
       "country":"BR",
       "coord":{
          "lon":-49.37944,
          "lat":-20.819719
       }
    },
    {
       "id":3461570,
       "name":"Ibirapuera",
       "country":"BR",
       "coord":{
          "lon":-46.633331,
          "lat":-23.6
       }
    },
    {
       "id":3467936,
       "name":"Camobi",
       "country":"BR",
       "coord":{
          "lon":-53.700001,
          "lat":-29.700001
       }
    },
    {
       "id":3386320,
       "name":"Tirirical",
       "country":"BR",
       "coord":{
          "lon":-44.23333,
          "lat":-2.56667
       }
    },
    {
       "id":7537426,
       "name":"Loteamento São Miguel",
       "country":"BR",
       "coord":{
          "lon":-43.702991,
          "lat":-22.931641
       }
    },
    {
       "id":3455390,
       "name":"Palmeiras",
       "country":"BR",
       "coord":{
          "lon":-47.75,
          "lat":-21.133329
       }
    },
    {
       "id":3473821,
       "name":"Lopes",
       "country":"BR",
       "coord":{
          "lon":-52.166672,
          "lat":-32.091671
       }
    },
    {
       "id":3731287,
       "name":"Taquari",
       "country":"BR",
       "coord":{
          "lon":-67.910278,
          "lat":-9.87361
       }
    },
    {
       "id":3467850,
       "name":"Campinhos",
       "country":"BR",
       "coord":{
          "lon":-40.883331,
          "lat":-14.86667
       }
    },
    {
       "id":3447540,
       "name":"Sipicuê",
       "country":"BR",
       "coord":{
          "lon":-55.683331,
          "lat":-22.549999
       }
    },
    {
       "id":3386657,
       "name":"Tapuio",
       "country":"BR",
       "coord":{
          "lon":-40.616669,
          "lat":-9.4
       }
    },
    {
       "id":3464379,
       "name":"Dunas",
       "country":"BR",
       "coord":{
          "lon":-52.283329,
          "lat":-31.75
       }
    },
    {
       "id":3446361,
       "name":"Tomás",
       "country":"BR",
       "coord":{
          "lon":-48.30167,
          "lat":-10.29056
       }
    },
    {
       "id":3471419,
       "name":"Arroio Miranda",
       "country":"BR",
       "coord":{
          "lon":-52.366669,
          "lat":-28.200001
       }
    },
    {
       "id":3451903,
       "name":"Rabelo",
       "country":"BR",
       "coord":{
          "lon":-46.533329,
          "lat":-21.85
       }
    },
    {
       "id":3663503,
       "name":"Manicore",
       "country":"BR",
       "coord":{
          "lon":-61.300282,
          "lat":-5.80917
       }
    },
    {
       "id":3397179,
       "name":"Juàzeirinho",
       "country":"BR",
       "coord":{
          "lon":-37.368328,
          "lat":-5.19222
       }
    },
    {
       "id":3754135,
       "name":"Educandos",
       "country":"BR",
       "coord":{
          "lon":-60.00806,
          "lat":-3.14417
       }
    },
    {
       "id":3470800,
       "name":"Barra",
       "country":"BR",
       "coord":{
          "lon":-41.76667,
          "lat":-22.35
       }
    },
    {
       "id":3394561,
       "name":"Monte Dourado",
       "country":"BR",
       "coord":{
          "lon":-52.528332,
          "lat":-0.86667
       }
    },
    {
       "id":3472775,
       "name":"Alagoas",
       "country":"BR",
       "coord":{
          "lon":-47.816669,
          "lat":-13.8
       }
    },
    {
       "id":3446941,
       "name":"Tanquinho",
       "country":"BR",
       "coord":{
          "lon":-41.26667,
          "lat":-12.46667
       }
    },
    {
       "id":3462977,
       "name":"Francisco Quirino",
       "country":"BR",
       "coord":{
          "lon":-47.166672,
          "lat":-23.08333
       }
    },
    {
       "id":3386329,
       "name":"Tiradentes",
       "country":"BR",
       "coord":{
          "lon":-39.283329,
          "lat":-7.23333
       }
    },
    {
       "id":3476871,
       "name":"Novo Horizonte",
       "country":"BR",
       "coord":{
          "lon":-43.383888,
          "lat":-21.78278
       }
    },
    {
       "id":3387423,
       "name":"Sítio Novo do Tocantins",
       "country":"BR",
       "coord":{
          "lon":-47.461109,
          "lat":-5.51833
       }
    },
    {
       "id":7567165,
       "name":"Vila Molica",
       "country":"BR",
       "coord":{
          "lon":-45.20816,
          "lat":-22.794371
       }
    },
    {
       "id":3461424,
       "name":"Ilha Brava",
       "country":"BR",
       "coord":{
          "lon":-42.01667,
          "lat":-18.883329
       }
    },
    {
       "id":3466778,
       "name":"Cascavel",
       "country":"BR",
       "coord":{
          "lon":-51.533329,
          "lat":-25.4
       }
    },
    {
       "id":3393046,
       "name":"Parangaba",
       "country":"BR",
       "coord":{
          "lon":-38.561668,
          "lat":-3.78583
       }
    },
    {
       "id":6317136,
       "name":"Fernando de Noronha (Distrito Estadual)",
       "country":"BR",
       "coord":{
          "lon":-32.410831,
          "lat":-3.84028
       }
    },
    {
       "id":7874493,
       "name":"Aeroporto Hercilio Luz",
       "country":"BR",
       "coord":{
          "lon":-48.546951,
          "lat":-27.668711
       }
    },
    {
       "id":3465887,
       "name":"Colônia São João",
       "country":"BR",
       "coord":{
          "lon":-54.466671,
          "lat":-25.566669
       }
    },
    {
       "id":3397763,
       "name":"Jacareacanga",
       "country":"BR",
       "coord":{
          "lon":-57.752781,
          "lat":-6.22222
       }
    },
    {
       "id":3754114,
       "name":"Parque das Laranjeiras",
       "country":"BR",
       "coord":{
          "lon":-60.013611,
          "lat":-3.06472
       }
    },
    {
       "id":3662616,
       "name":"Recordação",
       "country":"BR",
       "coord":{
          "lon":-72.833328,
          "lat":-7.6
       }
    },
    {
       "id":7582881,
       "name":"Travessa Santa Tereza",
       "country":"BR",
       "coord":{
          "lon":-51.195099,
          "lat":-29.2103
       }
    },
    {
       "id":3466980,
       "name":"Caravelas",
       "country":"BR",
       "coord":{
          "lon":-39.248138,
          "lat":-17.712549
       }
    },
    {
       "id":3470380,
       "name":"Barro Prêto",
       "country":"BR",
       "coord":{
          "lon":-49.166672,
          "lat":-25.549999
       }
    },
    {
       "id":3461785,
       "name":"Guarus",
       "country":"BR",
       "coord":{
          "lon":-41.333328,
          "lat":-21.73333
       }
    },
    {
       "id":3450485,
       "name":"Sangão",
       "country":"BR",
       "coord":{
          "lon":-49.400002,
          "lat":-28.73333
       }
    },
    {
       "id":6317872,
       "name":"Parauapebas",
       "country":"BR",
       "coord":{
          "lon":-49.902222,
          "lat":-6.0675
       }
    },
    {
       "id":3466296,
       "name":"Chapeco",
       "country":"BR",
       "coord":{
          "lon":-52.618328,
          "lat":-27.09639
       }
    },
    {
       "id":3466240,
       "name":"Chiba",
       "country":"BR",
       "coord":{
          "lon":-53.5,
          "lat":-24.98333
       }
    },
    {
       "id":3463517,
       "name":"Fazendinha",
       "country":"BR",
       "coord":{
          "lon":-41.966671,
          "lat":-22.76667
       }
    },
    {
       "id":3662614,
       "name":"Recreio",
       "country":"BR",
       "coord":{
          "lon":-60.716671,
          "lat":2.85
       }
    },
    {
       "id":3445334,
       "name":"Venda Nova",
       "country":"BR",
       "coord":{
          "lon":-43.95639,
          "lat":-19.816669
       }
    },
    {
       "id":3385597,
       "name":"Val de Cães",
       "country":"BR",
       "coord":{
          "lon":-48.472221,
          "lat":-1.39694
       }
    },
    {
       "id":3471355,
       "name":"Atalaia Velha",
       "country":"BR",
       "coord":{
          "lon":-37.066669,
          "lat":-10.96667
       }
    },
    {
       "id":3466386,
       "name":"Cervinho",
       "country":"BR",
       "coord":{
          "lon":-50.450001,
          "lat":-22.6
       }
    },
    {
       "id":3389458,
       "name":"Santa Maria Velha",
       "country":"BR",
       "coord":{
          "lon":-49.26833,
          "lat":-8.34028
       }
    },
    {
       "id":3400568,
       "name":"Estremo",
       "country":"BR",
       "coord":{
          "lon":-38.283329,
          "lat":-7.8
       }
    },
    {
       "id":3394023,
       "name":"Natal",
       "country":"BR",
       "coord":{
          "lon":-35.209438,
          "lat":-5.795
       }
    },
    {
       "id":3399415,
       "name":"Fortaleza",
       "country":"BR",
       "coord":{
          "lon":-38.54306,
          "lat":-3.71722
       }
    },
    {
       "id":3403208,
       "name":"Capanema",
       "country":"BR",
       "coord":{
          "lon":-47.180828,
          "lat":-1.19583
       }
    },
    {
       "id":3403611,
       "name":"Campo Alegre",
       "country":"BR",
       "coord":{
          "lon":-36.35083,
          "lat":-9.78194
       }
    },
    {
       "id":3404722,
       "name":"Buriti Bravo",
       "country":"BR",
       "coord":{
          "lon":-43.833611,
          "lat":-5.83722
       }
    },
    {
       "id":3405738,
       "name":"Bezerros",
       "country":"BR",
       "coord":{
          "lon":-35.79694,
          "lat":-8.23333
       }
    },
    {
       "id":3405812,
       "name":"Belo Jardim",
       "country":"BR",
       "coord":{
          "lon":-36.424171,
          "lat":-8.33556
       }
    },
    {
       "id":3405863,
       "name":"Belem",
       "country":"BR",
       "coord":{
          "lon":-35.533329,
          "lat":-6.69167
       }
    },
    {
       "id":3405870,
       "name":"Belem",
       "country":"BR",
       "coord":{
          "lon":-48.50444,
          "lat":-1.45583
       }
    },
    {
       "id":3407216,
       "name":"Arcoverde",
       "country":"BR",
       "coord":{
          "lon":-37.05389,
          "lat":-8.41889
       }
    },
    {
       "id":3407243,
       "name":"Araripina",
       "country":"BR",
       "coord":{
          "lon":-40.498329,
          "lat":-7.57611
       }
    },
    {
       "id":3407357,
       "name":"Araguaina",
       "country":"BR",
       "coord":{
          "lon":-48.207218,
          "lat":-7.19111
       }
    },
    {
       "id":3407407,
       "name":"Aquiraz",
       "country":"BR",
       "coord":{
          "lon":-38.391109,
          "lat":-3.90139
       }
    },
    {
       "id":3407758,
       "name":"Amaraji",
       "country":"BR",
       "coord":{
          "lon":-35.452499,
          "lat":-8.38306
       }
    },
    {
       "id":3407980,
       "name":"Alenquer",
       "country":"BR",
       "coord":{
          "lon":-54.738331,
          "lat":-1.94167
       }
    },
    {
       "id":3408100,
       "name":"Alagoa Grande",
       "country":"BR",
       "coord":{
          "lon":-35.630001,
          "lat":-7.15833
       }
    },
    {
       "id":3408166,
       "name":"Aguas Belas",
       "country":"BR",
       "coord":{
          "lon":-37.123058,
          "lat":-9.11139
       }
    },
    {
       "id":3408424,
       "name":"Abaetetuba",
       "country":"BR",
       "coord":{
          "lon":-48.8825,
          "lat":-1.71806
       }
    },
    {
       "id":3444924,
       "name":"Vitoria",
       "country":"BR",
       "coord":{
          "lon":-40.33778,
          "lat":-20.319441
       }
    },
    {
       "id":3445026,
       "name":"Vila Velha",
       "country":"BR",
       "coord":{
          "lon":-40.2925,
          "lat":-20.32972
       }
    },
    {
       "id":3445596,
       "name":"Valenca",
       "country":"BR",
       "coord":{
          "lon":-43.700279,
          "lat":-22.24556
       }
    },
    {
       "id":3445993,
       "name":"Tubarao",
       "country":"BR",
       "coord":{
          "lon":-49.006939,
          "lat":-28.466669
       }
    },
    {
       "id":3446606,
       "name":"Teresopolis",
       "country":"BR",
       "coord":{
          "lon":-42.965561,
          "lat":-22.41222
       }
    },
    {
       "id":3446880,
       "name":"Tapes",
       "country":"BR",
       "coord":{
          "lon":-51.395828,
          "lat":-30.67333
       }
    },
    {
       "id":3447212,
       "name":"Suzano",
       "country":"BR",
       "coord":{
          "lon":-46.310829,
          "lat":-23.5425
       }
    },
    {
       "id":3447259,
       "name":"Sumare",
       "country":"BR",
       "coord":{
          "lon":-47.266941,
          "lat":-22.821939
       }
    },
    {
       "id":3447591,
       "name":"Silva Jardim",
       "country":"BR",
       "coord":{
          "lon":-42.39167,
          "lat":-22.650829
       }
    },
    {
       "id":3447961,
       "name":"Saubara",
       "country":"BR",
       "coord":{
          "lon":-38.768608,
          "lat":-12.7375
       }
    },
    {
       "id":3448031,
       "name":"Sapucaia",
       "country":"BR",
       "coord":{
          "lon":-51.150002,
          "lat":-29.83333
       }
    },
    {
       "id":3448219,
       "name":"Sao Sebastiao do Passe",
       "country":"BR",
       "coord":{
          "lon":-38.495281,
          "lat":-12.5125
       }
    },
    {
       "id":3448221,
       "name":"Sao Sebastiao do Paraiso",
       "country":"BR",
       "coord":{
          "lon":-46.99139,
          "lat":-20.916941
       }
    },
    {
       "id":3448257,
       "name":"Sao Sebastiao",
       "country":"BR",
       "coord":{
          "lon":-45.409721,
          "lat":-23.76
       }
    },
    {
       "id":3448453,
       "name":"Sao Miguel do Iguacu",
       "country":"BR",
       "coord":{
          "lon":-54.237782,
          "lat":-25.348061
       }
    },
    {
       "id":3448742,
       "name":"Sao Jose",
       "country":"BR",
       "coord":{
          "lon":-49.166672,
          "lat":-28.23333
       }
    },
    {
       "id":3448846,
       "name":"Sao Joao Nepomuceno",
       "country":"BR",
       "coord":{
          "lon":-43.010559,
          "lat":-21.540001
       }
    },
    {
       "id":3448877,
       "name":"Sao Joao de Meriti",
       "country":"BR",
       "coord":{
          "lon":-43.372219,
          "lat":-22.80389
       }
    },
    {
       "id":3448879,
       "name":"Sao Joao del Rei",
       "country":"BR",
       "coord":{
          "lon":-44.261669,
          "lat":-21.135559
       }
    },
    {
       "id":3448902,
       "name":"Sao Joao da Boa Vista",
       "country":"BR",
       "coord":{
          "lon":-46.798061,
          "lat":-21.96917
       }
    },
    {
       "id":3448903,
       "name":"Sao Joao da Barra",
       "country":"BR",
       "coord":{
          "lon":-41.051109,
          "lat":-21.64028
       }
    },
    {
       "id":3449112,
       "name":"Sao Francisco do Sul",
       "country":"BR",
       "coord":{
          "lon":-48.638062,
          "lat":-26.24333
       }
    },
    {
       "id":3449195,
       "name":"Sao Fidelis",
       "country":"BR",
       "coord":{
          "lon":-41.746941,
          "lat":-21.646111
       }
    },
    {
       "id":3449500,
       "name":"Santo Antonio do Monte",
       "country":"BR",
       "coord":{
          "lon":-45.29361,
          "lat":-20.087219
       }
    },
    {
       "id":3449529,
       "name":"Santo Antonio da Platina",
       "country":"BR",
       "coord":{
          "lon":-50.077221,
          "lat":-23.295
       }
    },
    {
       "id":3449701,
       "name":"Santo Andre",
       "country":"BR",
       "coord":{
          "lon":-46.53833,
          "lat":-23.663891
       }
    },
    {
       "id":3450188,
       "name":"Santa Isabel",
       "country":"BR",
       "coord":{
          "lon":-46.22139,
          "lat":-23.315559
       }
    },
    {
       "id":6321026,
       "name":"Salvador",
       "country":"BR",
       "coord":{
          "lon":-38.50811,
          "lat":-12.97177
       }
    },
    {
       "id":3450554,
       "name":"Salvador",
       "country":"BR",
       "coord":{
          "lon":-38.51083,
          "lat":-12.97111
       }
    },
    {
       "id":3450963,
       "name":"Rolante",
       "country":"BR",
       "coord":{
          "lon":-50.575829,
          "lat":-29.65056
       }
    },
    {
       "id":3451124,
       "name":"Rio Negrinho",
       "country":"BR",
       "coord":{
          "lon":-49.51833,
          "lat":-26.25444
       }
    },
    {
       "id":3451134,
       "name":"Rio Grande da Serra",
       "country":"BR",
       "coord":{
          "lon":-46.398331,
          "lat":-23.744169
       }
    },
    {
       "id":3451138,
       "name":"Rio Grande",
       "country":"BR",
       "coord":{
          "lon":-52.09861,
          "lat":-32.035
       }
    },
    {
       "id":3451205,
       "name":"Rio das Ostras",
       "country":"BR",
       "coord":{
          "lon":-41.945,
          "lat":-22.526939
       }
    },
    {
       "id":3451329,
       "name":"Ribeirao Pires",
       "country":"BR",
       "coord":{
          "lon":-46.41333,
          "lat":-23.71056
       }
    },
    {
       "id":3451353,
       "name":"Ribeirao das Neves",
       "country":"BR",
       "coord":{
          "lon":-44.08667,
          "lat":-19.766939
       }
    },
    {
       "id":3453240,
       "name":"Pompeu",
       "country":"BR",
       "coord":{
          "lon":-44.93528,
          "lat":-19.22444
       }
    },
    {
       "id":3453245,
       "name":"Pomerode",
       "country":"BR",
       "coord":{
          "lon":-49.176941,
          "lat":-26.740561
       }
    },
    {
       "id":3453420,
       "name":"Planaltina",
       "country":"BR",
       "coord":{
          "lon":-47.61417,
          "lat":-15.45278
       }
    },
    {
       "id":3453439,
       "name":"Piui",
       "country":"BR",
       "coord":{
          "lon":-45.958061,
          "lat":-20.465281
       }
    },
    {
       "id":3453659,
       "name":"Piracanjuba",
       "country":"BR",
       "coord":{
          "lon":-49.01667,
          "lat":-17.30278
       }
    },
    {
       "id":3453926,
       "name":"Piedade",
       "country":"BR",
       "coord":{
          "lon":-47.42778,
          "lat":-23.711941
       }
    },
    {
       "id":3454031,
       "name":"Petropolis",
       "country":"BR",
       "coord":{
          "lon":-43.178612,
          "lat":-22.504999
       }
    },
    {
       "id":3455070,
       "name":"Paranagua",
       "country":"BR",
       "coord":{
          "lon":-48.509171,
          "lat":-25.52
       }
    },
    {
       "id":3455689,
       "name":"Ouro Branco",
       "country":"BR",
       "coord":{
          "lon":-43.69194,
          "lat":-20.52083
       }
    },
    {
       "id":3456240,
       "name":"Nossa Senhora da Gloria",
       "country":"BR",
       "coord":{
          "lon":-37.42028,
          "lat":-10.21833
       }
    },
    {
       "id":3456483,
       "name":"Muritiba",
       "country":"BR",
       "coord":{
          "lon":-39.25,
          "lat":-12.91667
       }
    },
    {
       "id":3456873,
       "name":"Monte Alto",
       "country":"BR",
       "coord":{
          "lon":-48.496391,
          "lat":-21.26111
       }
    },
    {
       "id":3457001,
       "name":"Mogi das Cruzes",
       "country":"BR",
       "coord":{
          "lon":-46.188332,
          "lat":-23.522779
       }
    },
    {
       "id":3457247,
       "name":"Mendes",
       "country":"BR",
       "coord":{
          "lon":-43.73278,
          "lat":-22.52667
       }
    },
    {
       "id":3457360,
       "name":"Medeiros Neto",
       "country":"BR",
       "coord":{
          "lon":-40.220558,
          "lat":-17.37389
       }
    },
    {
       "id":3457393,
       "name":"Matozinhos",
       "country":"BR",
       "coord":{
          "lon":-44.08139,
          "lat":-19.557779
       }
    },
    {
       "id":3457528,
       "name":"Mata de Sao Joao",
       "country":"BR",
       "coord":{
          "lon":-38.299171,
          "lat":-12.53028
       }
    },
    {
       "id":3457595,
       "name":"Martinopolis",
       "country":"BR",
       "coord":{
          "lon":-51.17083,
          "lat":-22.14583
       }
    },
    {
       "id":3457741,
       "name":"Marialva",
       "country":"BR",
       "coord":{
          "lon":-51.791672,
          "lat":-23.485001
       }
    },
    {
       "id":3457819,
       "name":"Marataizes",
       "country":"BR",
       "coord":{
          "lon":-40.82444,
          "lat":-21.043329
       }
    },
    {
       "id":3457991,
       "name":"Mangaratiba",
       "country":"BR",
       "coord":{
          "lon":-44.040562,
          "lat":-22.959721
       }
    },
    {
       "id":3458132,
       "name":"Mairinque",
       "country":"BR",
       "coord":{
          "lon":-47.183331,
          "lat":-23.54583
       }
    },
    {
       "id":3458266,
       "name":"Macae",
       "country":"BR",
       "coord":{
          "lon":-41.786942,
          "lat":-22.370831
       }
    },
    {
       "id":3458397,
       "name":"Lucas",
       "country":"BR",
       "coord":{
          "lon":-55.933331,
          "lat":-16.33333
       }
    },
    {
       "id":3458498,
       "name":"Linhares",
       "country":"BR",
       "coord":{
          "lon":-40.07222,
          "lat":-19.391109
       }
    },
    {
       "id":3458645,
       "name":"Lencois Paulista",
       "country":"BR",
       "coord":{
          "lon":-48.800282,
          "lat":-22.59861
       }
    },
    {
       "id":3458662,
       "name":"Leme",
       "country":"BR",
       "coord":{
          "lon":-47.390282,
          "lat":-22.18556
       }
    },
    {
       "id":3458778,
       "name":"Laranjeiras",
       "country":"BR",
       "coord":{
          "lon":-37.169998,
          "lat":-10.80639
       }
    },
    {
       "id":3458786,
       "name":"Laranjal Paulista",
       "country":"BR",
       "coord":{
          "lon":-47.83667,
          "lat":-23.049721
       }
    },
    {
       "id":3458902,
       "name":"Lajinha",
       "country":"BR",
       "coord":{
          "lon":-41.62278,
          "lat":-20.15139
       }
    },
    {
       "id":3459943,
       "name":"Jequie",
       "country":"BR",
       "coord":{
          "lon":-40.083611,
          "lat":-13.8575
       }
    },
    {
       "id":3460005,
       "name":"Jau",
       "country":"BR",
       "coord":{
          "lon":-48.557781,
          "lat":-22.296391
       }
    },
    {
       "id":3460542,
       "name":"Itororo",
       "country":"BR",
       "coord":{
          "lon":-40.070278,
          "lat":-15.11694
       }
    },
    {
       "id":3460730,
       "name":"Itapetinga",
       "country":"BR",
       "coord":{
          "lon":-40.24778,
          "lat":-15.24889
       }
    },
    {
       "id":3460752,
       "name":"Itapecerica",
       "country":"BR",
       "coord":{
          "lon":-45.125561,
          "lat":-20.4725
       }
    },
    {
       "id":3460764,
       "name":"Itaparica",
       "country":"BR",
       "coord":{
          "lon":-38.678612,
          "lat":-12.88833
       }
    },
    {
       "id":3460791,
       "name":"Itanhaem",
       "country":"BR",
       "coord":{
          "lon":-46.788891,
          "lat":-24.18306
       }
    },
    {
       "id":3460826,
       "name":"Itamaraju",
       "country":"BR",
       "coord":{
          "lon":-39.531109,
          "lat":-17.039169
       }
    },
    {
       "id":3460845,
       "name":"Itajai",
       "country":"BR",
       "coord":{
          "lon":-48.661942,
          "lat":-26.90778
       }
    },
    {
       "id":3460899,
       "name":"Itaguai",
       "country":"BR",
       "coord":{
          "lon":-43.77528,
          "lat":-22.852221
       }
    },
    {
       "id":3461124,
       "name":"Ipira",
       "country":"BR",
       "coord":{
          "lon":-39.737221,
          "lat":-12.15833
       }
    },
    {
       "id":3461316,
       "name":"Indaial",
       "country":"BR",
       "coord":{
          "lon":-49.23167,
          "lat":-26.897779
       }
    },
    {
       "id":3461408,
       "name":"Ilheus",
       "country":"BR",
       "coord":{
          "lon":-39.049438,
          "lat":-14.78889
       }
    },
    {
       "id":3461628,
       "name":"Ibaiti",
       "country":"BR",
       "coord":{
          "lon":-50.187778,
          "lat":-23.84861
       }
    },
    {
       "id":3461680,
       "name":"Herval",
       "country":"BR",
       "coord":{
          "lon":-53.395561,
          "lat":-32.023609
       }
    },
    {
       "id":3461724,
       "name":"Gurupi",
       "country":"BR",
       "coord":{
          "lon":-49.068611,
          "lat":-11.72917
       }
    },
    {
       "id":3461857,
       "name":"Guaratuba",
       "country":"BR",
       "coord":{
          "lon":-48.574718,
          "lat":-25.88278
       }
    },
    {
       "id":3461859,
       "name":"Guaratingueta",
       "country":"BR",
       "coord":{
          "lon":-45.192501,
          "lat":-22.816389
       }
    },
    {
       "id":3461888,
       "name":"Guarapari",
       "country":"BR",
       "coord":{
          "lon":-40.497501,
          "lat":-20.66667
       }
    },
    {
       "id":3461995,
       "name":"Guaira",
       "country":"BR",
       "coord":{
          "lon":-48.310558,
          "lat":-20.318331
       }
    },
    {
       "id":3462601,
       "name":"Gandu",
       "country":"BR",
       "coord":{
          "lon":-39.486671,
          "lat":-13.74389
       }
    },
    {
       "id":3462980,
       "name":"Francisco Morato",
       "country":"BR",
       "coord":{
          "lon":-46.745281,
          "lat":-23.28167
       }
    },
    {
       "id":3463030,
       "name":"Foz do Iguacu",
       "country":"BR",
       "coord":{
          "lon":-54.588058,
          "lat":-25.547779
       }
    },
    {
       "id":3463237,
       "name":"Florianopolis",
       "country":"BR",
       "coord":{
          "lon":-48.549171,
          "lat":-27.59667
       }
    },
    {
       "id":3463478,
       "name":"Feira de Santana",
       "country":"BR",
       "coord":{
          "lon":-38.966671,
          "lat":-12.26667
       }
    },
    {
       "id":3464975,
       "name":"Curitiba",
       "country":"BR",
       "coord":{
          "lon":-49.27306,
          "lat":-25.42778
       }
    },
    {
       "id":3465758,
       "name":"Conceicao do Jacuipe",
       "country":"BR",
       "coord":{
          "lon":-38.76667,
          "lat":-12.31667
       }
    },
    {
       "id":3465767,
       "name":"Conceicao da Feira",
       "country":"BR",
       "coord":{
          "lon":-38.998611,
          "lat":-12.50583
       }
    },
    {
       "id":3466481,
       "name":"Celso Ramos",
       "country":"BR",
       "coord":{
          "lon":-51.336391,
          "lat":-27.634439
       }
    },
    {
       "id":3466902,
       "name":"Carmo do Paranaiba",
       "country":"BR",
       "coord":{
          "lon":-46.316109,
          "lat":-19.00083
       }
    },
    {
       "id":3466903,
       "name":"Carmo do Cajuru",
       "country":"BR",
       "coord":{
          "lon":-44.771111,
          "lat":-20.18417
       }
    },
    {
       "id":3466998,
       "name":"Carapicuiba",
       "country":"BR",
       "coord":{
          "lon":-46.83556,
          "lat":-23.522499
       }
    },
    {
       "id":3467026,
       "name":"Carandai",
       "country":"BR",
       "coord":{
          "lon":-43.806389,
          "lat":-20.953609
       }
    },
    {
       "id":6322184,
       "name":"Caraguatatuba",
       "country":"BR",
       "coord":{
          "lon":-45.489922,
          "lat":-23.633841
       }
    },
    {
       "id":3467081,
       "name":"Caraguatatuba",
       "country":"BR",
       "coord":{
          "lon":-45.413059,
          "lat":-23.620279
       }
    },
    {
       "id":3467530,
       "name":"Canela",
       "country":"BR",
       "coord":{
          "lon":-50.815559,
          "lat":-29.365561
       }
    },
    {
       "id":3467673,
       "name":"Campo Verde",
       "country":"BR",
       "coord":{
          "lon":-54.066669,
          "lat":-20.41667
       }
    },
    {
       "id":3467684,
       "name":"Campos do Jordao",
       "country":"BR",
       "coord":{
          "lon":-45.591389,
          "lat":-22.739441
       }
    },
    {
       "id":3467687,
       "name":"Campos Belos",
       "country":"BR",
       "coord":{
          "lon":-46.771671,
          "lat":-13.03667
       }
    },
    {
       "id":3467717,
       "name":"Campo Mourao",
       "country":"BR",
       "coord":{
          "lon":-52.38306,
          "lat":-24.045561
       }
    },
    {
       "id":3467760,
       "name":"Campo Formoso",
       "country":"BR",
       "coord":{
          "lon":-40.321388,
          "lat":-10.5075
       }
    },
    {
       "id":3467796,
       "name":"Campo Belo",
       "country":"BR",
       "coord":{
          "lon":-45.277222,
          "lat":-20.897221
       }
    },
    {
       "id":3467985,
       "name":"Cambara",
       "country":"BR",
       "coord":{
          "lon":-50.073608,
          "lat":-23.046391
       }
    },
    {
       "id":3468014,
       "name":"Camaqua",
       "country":"BR",
       "coord":{
          "lon":-51.812222,
          "lat":-30.85111
       }
    },
    {
       "id":3468023,
       "name":"Camanducaia",
       "country":"BR",
       "coord":{
          "lon":-46.144718,
          "lat":-22.75528
       }
    },
    {
       "id":3468031,
       "name":"Camacari",
       "country":"BR",
       "coord":{
          "lon":-38.324169,
          "lat":-12.6975
       }
    },
    {
       "id":3468157,
       "name":"Cajati",
       "country":"BR",
       "coord":{
          "lon":-48.12278,
          "lat":-24.736111
       }
    },
    {
       "id":3468158,
       "name":"Cajamar",
       "country":"BR",
       "coord":{
          "lon":-46.876942,
          "lat":-23.35611
       }
    },
    {
       "id":3468535,
       "name":"Cachoeira",
       "country":"BR",
       "coord":{
          "lon":-38.95583,
          "lat":-12.61833
       }
    },
    {
       "id":3468894,
       "name":"Brumadinho",
       "country":"BR",
       "coord":{
          "lon":-44.199718,
          "lat":-20.14333
       }
    },
    {
       "id":6322152,
       "name":"Bragança Paulista",
       "country":"BR",
       "coord":{
          "lon":-46.555592,
          "lat":-22.94002
       }
    },
    {
       "id":3469092,
       "name":"Braganca Paulista",
       "country":"BR",
       "coord":{
          "lon":-46.541939,
          "lat":-22.951941
       }
    },
    {
       "id":3470177,
       "name":"Bela Vista",
       "country":"BR",
       "coord":{
          "lon":-56.521111,
          "lat":-22.108891
       }
    },
    {
       "id":3470264,
       "name":"Bebedouro",
       "country":"BR",
       "coord":{
          "lon":-48.479172,
          "lat":-20.94944
       }
    },
    {
       "id":3470341,
       "name":"Bastos",
       "country":"BR",
       "coord":{
          "lon":-50.733891,
          "lat":-21.92194
       }
    },
    {
       "id":3470597,
       "name":"Barra Velha",
       "country":"BR",
       "coord":{
          "lon":-48.684719,
          "lat":-26.632219
       }
    },
    {
       "id":3470730,
       "name":"Barra de Sao Francisco",
       "country":"BR",
       "coord":{
          "lon":-40.890831,
          "lat":-18.754999
       }
    },
    {
       "id":3471061,
       "name":"Baixo Guandu",
       "country":"BR",
       "coord":{
          "lon":-41.015831,
          "lat":-19.51889
       }
    },
    {
       "id":3471335,
       "name":"Atibaia",
       "country":"BR",
       "coord":{
          "lon":-46.550282,
          "lat":-23.11694
       }
    },
    {
       "id":3471927,
       "name":"Apiai",
       "country":"BR",
       "coord":{
          "lon":-48.842499,
          "lat":-24.509439
       }
    },
    {
       "id":3472048,
       "name":"Antonina",
       "country":"BR",
       "coord":{
          "lon":-48.711941,
          "lat":-25.42861
       }
    },
    {
       "id":3472138,
       "name":"Anicuns",
       "country":"BR",
       "coord":{
          "lon":-49.96167,
          "lat":-16.461109
       }
    },
    {
       "id":3472609,
       "name":"Alem Paraiba",
       "country":"BR",
       "coord":{
          "lon":-42.704441,
          "lat":-21.887779
       }
    },
    {
       "id":3473964,
       "name":"Guaiba",
       "country":"BR",
       "coord":{
          "lon":-51.325001,
          "lat":-30.11389
       }
    },
    {
       "id":3474574,
       "name":"Palmas",
       "country":"BR",
       "coord":{
          "lon":-48.360279,
          "lat":-10.21278
       }
    },
    {
       "id":3664659,
       "name":"Carauari",
       "country":"BR",
       "coord":{
          "lon":-66.895828,
          "lat":-4.88278
       }
    },
    {
       "id":3665202,
       "name":"Aripuana",
       "country":"BR",
       "coord":{
          "lon":-60.633331,
          "lat":-9.16667
       }
    },
    {
       "id":3924948,
       "name":"Ouro Preto do Oeste",
       "country":"BR",
       "coord":{
          "lon":-62.215832,
          "lat":-10.74806
       }
    },
    {
       "id":3925212,
       "name":"Cacoal",
       "country":"BR",
       "coord":{
          "lon":-61.44722,
          "lat":-11.43861
       }
    },
    {
       "id":6316406,
       "name":"Aparecida de Goiania",
       "country":"BR",
       "coord":{
          "lon":-49.243889,
          "lat":-16.82333
       }
    },
    {
       "id":6316729,
       "name":"Campinas",
       "country":"BR",
       "coord":{
          "lon":-48.606941,
          "lat":-27.59444
       }
    },
    {
       "id":6317344,
       "name":"Jaboatao dos Guararapes",
       "country":"BR",
       "coord":{
          "lon":-35.014721,
          "lat":-8.11278
       }
    },
    {
       "id":6317464,
       "name":"Lauro de Freitas",
       "country":"BR",
       "coord":{
          "lon":-38.327221,
          "lat":-12.89444
       }
    },
    {
       "id":6317953,
       "name":"Pinhais",
       "country":"BR",
       "coord":{
          "lon":-49.192501,
          "lat":-25.444719
       }
    },
    {
       "id":6318165,
       "name":"Rio Preto da Eva",
       "country":"BR",
       "coord":{
          "lon":-59.699718,
          "lat":-2.69944
       }
    },
    {
       "id":6318694,
       "name":"Simoes Filho",
       "country":"BR",
       "coord":{
          "lon":-38.403889,
          "lat":-12.78444
       }
    },
    {
       "id":6693804,
       "name":"Cambebba",
       "country":"BR",
       "coord":{
          "lon":-38.829128,
          "lat":-3.62092
       }
    },
    {
       "id":7732959,
       "name":"Disney",
       "country":"BR",
       "coord":{
          "lon":-40.334332,
          "lat":-20.302851
       }
    },
    {
       "id":7874479,
       "name":"Trindade",
       "country":"BR",
       "coord":{
          "lon":-48.52335,
          "lat":-27.586121
       }
    },
    {
       "id":7874492,
       "name":"Freguesia do Ribeirao da Ilha",
       "country":"BR",
       "coord":{
          "lon":-48.56266,
          "lat":-27.71773
       }
    },
    {
       "id":3384983,
       "name":"Vitorino Freire",
       "country":"BR",
       "coord":{
          "lon":-45.166672,
          "lat":-4.06667
       }
    },
    {
       "id":3385658,
       "name":"Urucui",
       "country":"BR",
       "coord":{
          "lon":-44.55611,
          "lat":-7.22944
       }
    },
    {
       "id":3385670,
       "name":"Urucara",
       "country":"BR",
       "coord":{
          "lon":-57.759998,
          "lat":-2.53639
       }
    },
    {
       "id":3385778,
       "name":"Umbuzeiro",
       "country":"BR",
       "coord":{
          "lon":-35.663609,
          "lat":-7.69556
       }
    },
    {
       "id":3385899,
       "name":"Tutoia",
       "country":"BR",
       "coord":{
          "lon":-42.274441,
          "lat":-2.76194
       }
    },
    {
       "id":3385908,
       "name":"Turiacu",
       "country":"BR",
       "coord":{
          "lon":-45.37167,
          "lat":-1.66333
       }
    },
    {
       "id":3385920,
       "name":"Tupanatinga",
       "country":"BR",
       "coord":{
          "lon":-37.339722,
          "lat":-8.75333
       }
    },
    {
       "id":3386027,
       "name":"Triunfo",
       "country":"BR",
       "coord":{
          "lon":-38.599998,
          "lat":-6.56667
       }
    },
    {
       "id":3386467,
       "name":"Terra Santa",
       "country":"BR",
       "coord":{
          "lon":-56.486938,
          "lat":-2.10417
       }
    },
    {
       "id":3387130,
       "name":"Sume",
       "country":"BR",
       "coord":{
          "lon":-36.880001,
          "lat":-7.67167
       }
    },
    {
       "id":3387258,
       "name":"Soledade",
       "country":"BR",
       "coord":{
          "lon":-36.362782,
          "lat":-7.05722
       }
    },
    {
       "id":3387620,
       "name":"Simplicio Mendes",
       "country":"BR",
       "coord":{
          "lon":-41.910278,
          "lat":-7.85389
       }
    },
    {
       "id":3387625,
       "name":"Simoes",
       "country":"BR",
       "coord":{
          "lon":-40.81778,
          "lat":-7.59889
       }
    },
    {
       "id":3387644,
       "name":"Severiano Melo",
       "country":"BR",
       "coord":{
          "lon":-37.957779,
          "lat":-5.77722
       }
    },
    {
       "id":3387880,
       "name":"Serra Branca",
       "country":"BR",
       "coord":{
          "lon":-38.26667,
          "lat":-6.53333
       }
    },
    {
       "id":3387928,
       "name":"Senador Jose Porfirio",
       "country":"BR",
       "coord":{
          "lon":-51.95417,
          "lat":-2.59083
       }
    },
    {
       "id":3388238,
       "name":"Sao Paulo do Potengi",
       "country":"BR",
       "coord":{
          "lon":-35.762779,
          "lat":-5.895
       }
    },
    {
       "id":3388304,
       "name":"Sao Miguel",
       "country":"BR",
       "coord":{
          "lon":-35.366669,
          "lat":-5.46667
       }
    },
    {
       "id":3388447,
       "name":"Sao Jose da Tapera",
       "country":"BR",
       "coord":{
          "lon":-37.381111,
          "lat":-9.55833
       }
    },
    {
       "id":3388626,
       "name":"Sao Joao de Pirabas",
       "country":"BR",
       "coord":{
          "lon":-47.177219,
          "lat":-0.77472
       }
    },
    {
       "id":3388635,
       "name":"Sao Joao Batista",
       "country":"BR",
       "coord":{
          "lon":-44.806938,
          "lat":-2.95528
       }
    },
    {
       "id":3388713,
       "name":"Sao Goncalo do Amarante",
       "country":"BR",
       "coord":{
          "lon":-35.329441,
          "lat":-5.79333
       }
    },
    {
       "id":3388760,
       "name":"Sao Geraldo do Araguaia",
       "country":"BR",
       "coord":{
          "lon":-48.555,
          "lat":-6.40056
       }
    },
    {
       "id":3388926,
       "name":"Sao Caetano de Odivelas",
       "country":"BR",
       "coord":{
          "lon":-48.02,
          "lat":-0.75
       }
    },
    {
       "id":3389012,
       "name":"Sao Benedito do Rio Preto",
       "country":"BR",
       "coord":{
          "lon":-43.528332,
          "lat":-3.33361
       }
    },
    {
       "id":3389339,
       "name":"Santa Rita",
       "country":"BR",
       "coord":{
          "lon":-43.883331,
          "lat":-3.83333
       }
    },
    {
       "id":3389380,
       "name":"Santana do Mundau",
       "country":"BR",
       "coord":{
          "lon":-36.222221,
          "lat":-9.16806
       }
    },
    {
       "id":3389381,
       "name":"Santana do Matos",
       "country":"BR",
       "coord":{
          "lon":-36.65556,
          "lat":-5.9575
       }
    },
    {
       "id":3389873,
       "name":"Salgado de Sao Felix",
       "country":"BR",
       "coord":{
          "lon":-35.440559,
          "lat":-7.35694
       }
    },
    {
       "id":3390700,
       "name":"Regeneracao",
       "country":"BR",
       "coord":{
          "lon":-42.688332,
          "lat":-6.23778
       }
    },
    {
       "id":3390732,
       "name":"Redencao",
       "country":"BR",
       "coord":{
          "lon":-38.73056,
          "lat":-4.22583
       }
    },
    {
       "id":3390814,
       "name":"Raposa",
       "country":"BR",
       "coord":{
          "lon":-44.183331,
          "lat":-6.51667
       }
    },
    {
       "id":3390965,
       "name":"Quipapa",
       "country":"BR",
       "coord":{
          "lon":-36.011669,
          "lat":-8.82778
       }
    },
    {
       "id":3391287,
       "name":"Prainha",
       "country":"BR",
       "coord":{
          "lon":-53.48,
          "lat":-1.8
       }
    },
    {
       "id":3391408,
       "name":"Porto",
       "country":"BR",
       "coord":{
          "lon":-42.709999,
          "lat":-3.89333
       }
    },
    {
       "id":3391686,
       "name":"Poco das Trincheiras",
       "country":"BR",
       "coord":{
          "lon":-37.285561,
          "lat":-9.3125
       }
    },
    {
       "id":3391774,
       "name":"Pocao de Pedras",
       "country":"BR",
       "coord":{
          "lon":-44.849998,
          "lat":-4.66667
       }
    },
    {
       "id":3391889,
       "name":"Pitimbu",
       "country":"BR",
       "coord":{
          "lon":-34.808609,
          "lat":-7.47056
       }
    },
    {
       "id":3392018,
       "name":"Pio XII",
       "country":"BR",
       "coord":{
          "lon":-45.1525,
          "lat":-3.8325
       }
    },
    {
       "id":3392020,
       "name":"Pio IX",
       "country":"BR",
       "coord":{
          "lon":-40.57917,
          "lat":-6.8375
       }
    },
    {
       "id":3392095,
       "name":"Pimenteiras",
       "country":"BR",
       "coord":{
          "lon":-41.41917,
          "lat":-6.24528
       }
    },
    {
       "id":3392225,
       "name":"Pianco",
       "country":"BR",
       "coord":{
          "lon":-37.929169,
          "lat":-7.19806
       }
    },
    {
       "id":3392478,
       "name":"Pedras de Fogo",
       "country":"BR",
       "coord":{
          "lon":-35.11639,
          "lat":-7.40194
       }
    },
    {
       "id":3392742,
       "name":"Paulista",
       "country":"BR",
       "coord":{
          "lon":-37.624168,
          "lat":-6.59389
       }
    },
    {
       "id":3392907,
       "name":"Pastos Bons",
       "country":"BR",
       "coord":{
          "lon":-44.076672,
          "lat":-6.60167
       }
    },
    {
       "id":3392916,
       "name":"Passira",
       "country":"BR",
       "coord":{
          "lon":-35.580559,
          "lat":-7.995
       }
    },
    {
       "id":3392942,
       "name":"Passagem Franca",
       "country":"BR",
       "coord":{
          "lon":-43.783611,
          "lat":-6.17972
       }
    },
    {
       "id":3392996,
       "name":"Parnarama",
       "country":"BR",
       "coord":{
          "lon":-43.09333,
          "lat":-5.68167
       }
    },
    {
       "id":3392997,
       "name":"Parnamirim",
       "country":"BR",
       "coord":{
          "lon":-39.578331,
          "lat":-8.09056
       }
    },
    {
       "id":3393065,
       "name":"Parambu",
       "country":"BR",
       "coord":{
          "lon":-40.694439,
          "lat":-6.21111
       }
    },
    {
       "id":3393095,
       "name":"Paraibano",
       "country":"BR",
       "coord":{
          "lon":-43.983608,
          "lat":-6.43306
       }
    },
    {
       "id":3393240,
       "name":"Palmeirais",
       "country":"BR",
       "coord":{
          "lon":-43.063332,
          "lat":-5.97778
       }
    },
    {
       "id":3393525,
       "name":"Olivenca",
       "country":"BR",
       "coord":{
          "lon":-37.190559,
          "lat":-9.51861
       }
    },
    {
       "id":3393762,
       "name":"Oeiras do Para",
       "country":"BR",
       "coord":{
          "lon":-49.854439,
          "lat":-2.00306
       }
    },
    {
       "id":3393838,
       "name":"Nova Olinda do Norte",
       "country":"BR",
       "coord":{
          "lon":-59.09417,
          "lat":-3.88806
       }
    },
    {
       "id":3393922,
       "name":"Nisia Floresta",
       "country":"BR",
       "coord":{
          "lon":-35.208611,
          "lat":-6.09111
       }
    },
    {
       "id":3394238,
       "name":"Mulungu",
       "country":"BR",
       "coord":{
          "lon":-35.461941,
          "lat":-7.02444
       }
    },
    {
       "id":3394326,
       "name":"Muana",
       "country":"BR",
       "coord":{
          "lon":-49.216671,
          "lat":-1.52833
       }
    },
    {
       "id":3394372,
       "name":"Morros",
       "country":"BR",
       "coord":{
          "lon":-46.300282,
          "lat":-9.44667
       }
    },
    {
       "id":3394594,
       "name":"Monte Alegre",
       "country":"BR",
       "coord":{
          "lon":-36.301392,
          "lat":-5.88972
       }
    },
    {
       "id":3394621,
       "name":"Monsenhor Gil",
       "country":"BR",
       "coord":{
          "lon":-42.60778,
          "lat":-5.56417
       }
    },
    {
       "id":3394640,
       "name":"Moncao",
       "country":"BR",
       "coord":{
          "lon":-45.25111,
          "lat":-3.49167
       }
    },